ID,Title,AddressLine1,Town,StateOrProvince,Postcode,CountryID,Latitude,Longitude,DistanceUnit,RelatedURL,AccessComments,ContactTelephone1,ContactEmail,AddressLine2,ContactTelephone2
175902,Restaurante Tres Caminos,Barrio del CInca 27,El Grado,Aragon,22390,210,42.14119762309019,0.22514498660052595,0,,,,,,
175901,Estació de servei Vilalta,Barri de la Coromina,Cardona,Catalonia,08261,210,41.907774788044264,1.7010089664229326,0,,,,,,
175900,E.S. Celrà (Repsol),"Carrer Margarita Xirgu, 10",Celrà,Girona,17460,210,42.025359692577666,2.865044537270137,0,,,,,,
175899,McDonald's L'Escala,Carrer de les Coseidores s/n,L'Escala,Girona,17130,210,42.11094667333549,3.1253158809515753,0,,,,,,
175897,Restaurante el Navarro,"Autovia A-2, Km  285",Epila,Zaragoza,50290,210,41.53956551365221,-1.2377758826579566,0,,,,,,
175820,Estación de Servicio Astigarraga,GI-2132,Astigarraga,Basque Country,20115,210,43.281878148549026,-1.9164352709968853,0,https://www.estaciondeservicioastigarraga.es,,,,,
175817,Carrer dels Rourets,Carrer dels Rourets,Lluçà,Catalonia,,210,42.06824375835643,2.073100197588019,0,,,,,,
175813,SELBA EdRSR - ETECNIC,C. d'Emma,Sant Quirze de Besora,Catalonia,08585,210,42.102917081006154,2.216307556721631,0,,,,,,
175799,Lidl,Lidl,Alcalá la Real,Andalusia,23680,210,37.45061361699078,-3.9195752928199,0,,,,,,
175765,Urepel gasolindegia,Egiburuberri industrialdea,Errenteria,Gipuzkoa,20100,210,43.29580813865198,-1.8991863566047869,0,,,,,,
175751,Mercadona Tafalla,"Av. de Pamplona, 8",Tafalla,Comunidad Foral de Navarra,31300,210,42.53680039279644,-1.669631087393327,0,,,,,,
175741,Verdecora - Latorre Outlet,Camino de la casilla del ferrocarril,Zaragoza,Aragon,50120,210,41.67620505598748,-0.9498252140469958,0,,,,,,
175734,Escarrilla ,Calle El Llano 17,Escarrilla,Huesca,22660,210,42.736741,-0.315656,0,,,,,,
175724,Venta Santa Lucia,"Carretera N-II, Km. 372",Pina de Ebro,Zaragoza,50750,210,41.496555985069676,-0.36729010291333,0,,,,,,
175705, Cabrojo,Barrio Cabrojo 65,Cabrojo,Cantabria,39509,210,43.32886556275926,-4.192834484605783,0,,,,,,
175704,Area Servicio La Retama,Cabrojo,,Cantabria,,210,43.3283856718424,-4.190650121674935,0,,,,,,
175703,Restaurante Los Cordobeses,"A-92, salida 177",Loja,Andalusia,18313,210,37.13401542029092,-4.284150911760662,0,https://www.wenea.com/,,,,,
175702,Fernando Mugica kalea,"Errekalde Hiribidea, S/N",San Sebastián,Basque Country,20018,210,43.281134611965655,-2.016978138532295,0,,,,,,
175701,Mercadona Estella,33-36 Carretera Estella - Cárcar,Estella/Lizarra,Comunidad Foral de Navarra,31200,210,42.65471380414445,-2.026714138047737,0,,,,,,
175700,Mercadona Tudela,Calle Carmen Conde,Tudela,Comunidad Foral de Navarra,31500,210,42.06117508341214,-1.6182643262427518,0,,,,,,
175699,Mercadona Alagón,Avenida La Jarea,Alagón,Aragon,50630,210,41.76530226323109,-1.125065907329713,0,,,,,,
175698,Mercadona Parque del Agua,103 Avenida José Atarés,Zaragoza,Aragon,50018,210,41.673442689890805,-0.8986476116593849,0,,,,,,
175681,Parking La Torre Outlet,Camino de la casilla del ferrocarril,Zaragoza,Aragon,50120,210,41.67751589436904,-0.9518105529783725,0,,,,,,
175680,Decathlon La Torre Outlet,,Zaragoza,,,210,41.67695731542747,-0.9512113118807974,0,,Parking Decathlon,,,,
175662,Calle Utrera,Calle Utrera,Mairena del Alcor,Sevilla,41520,210,37.381816317192104,-5.733221173520633,0,,,,,,
175654,Hotel Denia Marriott La Sella 1,,Dénia,Valencian Community,03737,210,38.80820894504831,0.07580241280038535,0,https://www.iberdrola.es/servicios/vehiculo-electrico/punto-recarga,,900 92 92 93,,,
175653,Avenida Costa Blanca 1,Avenida Costa Blanca 1,Ondara,Alicante,03760,210,38.81820583495542,0.024432267816337117,0,https://www.iberdrola.es/servicios/vehiculo-electrico/punto-recarga,,900 92 92 93,,,
175652,Camí de Cabanes,Camí de Cabanes,Jávea/Xàbia,Valencian Community,03730,210,38.76586398417572,0.1809773986306027,0,https://www.iberdrola.es/servicios/vehiculo-electrico/punto-recarga,,900 92 92 93,,,
175613,Mercadona Villanueva de Gállego,"Calle Eulogio Oscáriz, 50830 Villanueva de Gállego, Zaragoza",Villanueva de Gállego,Aragon,50830,210,41.76192884246268,-0.8313788284365273,0,,,,,,
175612,Mercadona Calatayud,Avenida Diputación 13,Calatayud,Aragon,50300,210,41.3469092235533,-1.6418731228278602,0,,,,,,
175611,Avenida de Zaragoza,Avenida de Zaragoza,La Almunia de Doña Godina,Aragon,50270,210,41.484294817256796,-1.3708405031021584,0,,,,,,
175610,Mercadona Cuarte,Calle Emperador Domiciano,Cuarte de Huerva,Aragon,50410,210,41.59101787929171,-0.9440158350296315,0,,,,,,
175609,Mercadona Torrero c/ Biescas,Calle Biescas,Zaragoza,Aragon,50007,210,41.62659699413274,-0.8924614253539858,0,,Level -1 parking,,,,
175608,Mercadona Arzobispo Domenech,Calle del Arzobispo Domenech,Zaragoza,Aragon,50006,210,41.643872245827254,-0.8881876076293338,0,,,,,,
175493,Hotel Brasería La Barca,"N-431, km 113.5",Lepe,Andalucía,,210,37.283700669585585,-7.178580775972705,0,,,,,,
175490,Juneda - ETECNIC Charging Station,Carrer d'Àngel Guimerà 39,Juneda,Catalunya,25430,210,41.54765518063229,0.8288607844278886,0,https://evcharge.net/,,+34977276952,,,
175458,IONITY El Hidalgo,"A-4, km 193.6",Valdepeñas,,13300,210,38.824602,-3.396888,0,,,,,,
175457,IONITY Vila Sana,"A-2, km 489.525245 Vila-sana",Lleida,,25245,210,41.643858,0.931523,0,,,,,,
175452,IONITY Ariza Sur,"A-2, Pk 197.2",Ariza,Zaragoza,50220,210,41.311297,-2.003104,0,,,,,,
175451,IONITY Ariza Norte,"A-2, Pk 197.3",Ariza,Zaragoza,50220,210,41.312891,-2.001533,0,,,,,,
175442,Carrer Imperial Tarraco,"Carrer Imperial Tarraco, 2",,Catalunya,43770,210,41.10039787141554,0.6532031717595146,0,,,,,,
175403,IONITY Imarcoain,AP-15 km 78,Imarcoain,,31119,210,42.732379,-1.618726,0,,,,,,
175401,IONITY Pola de Lena Oeste,"A-66, km 58,5Pola de Lena",Pola de Lena,,33630,210,43.182007,-5.811178,0,,,,,,
175386,Mercadona,"Calle Miguel Servet, s/n",Cabanillas del Campo,Guadalajara,,210,40.636253065869255,-3.225100923389732,0,,,,,,
175320,Carretera de la Estación 53,Urbanización Estíbaliz ,Peñíscola,Castellón,12598,210,40.36639550727014,0.3923408142400149,0,https://apartamentopremium.com/chalet-adosrdo-urb-estibaliz/,"Urbanización Privada, Solo recarga a clientes alojados ",+34646359277,mangmupe@gmail.com,,
175317,Carretera de la Estación 53,Urbanización Estíbaliz ,Peñíscola,Castellón,12598,210,40.36639550727014,0.3923408142400149,0,https://apartamentopremium.com/chalet-adosrdo-urb-estibaliz/,"Urbanización Privada, Solo recarga a clientes alojados ",+34646359277,mangmupe@gmail.com,,
175307,Estación de Servicio Porto-Gas (CEPSA),34 Avinguda dels Benvinguts,Santanyí,Illes Balears,07660,210,39.379818110773044,3.226946584813959,0,,,,,,
175306,Estación de Servicio Porto-Gas (CEPSA),34 Avinguda dels Benvinguts,Santanyí,Illes Balears,07660,210,39.379818110773044,3.226946584813959,0,,,,,,
175303,Hotel Perú,,Trujillo,Extremadura,10200,210,39.474991305863824,-5.858147842183712,0,,,,,,
175302,Estepona,,Estepona,Andalucía,29680,210,36.43441263298935,-5.160342078036933,0,,,,,,
175293,Carrer de Víctor Balaguer,Carrer de Víctor Balaguer,Sitges,Catalunya,08870,210,41.240043079298715,1.803033133871054,0,,,,,,
175231,SELBA EdRSR - Etecnic,Casal de joves,Xerta,Catalonia,,210,40.90997785269511,0.48960472001294875,0,,,,,,
175229,SELBA EdRSR - Etecnic,Casal de joves,Xerta,Catalonia,,210,40.90997785269511,0.48960472001294875,0,,,,,,
175228,SELBA EdRSR - Etecnic,Casal de joves,Xerta,Catalonia,,210,40.90997785269511,0.48960472001294875,0,,,,,,
175191,Iberdrola Sant Mateu,"De La Pietat, 12",Sant Mateu,Castellón ,12170,210,40.466933316929214,0.18270647252313665,0,,,,,,
174993,Centro Porsche ZARAGOZA,"C/Langa del Castillo, 8",Zaragoza,Zaragoza,50013,210,41.63632005622986,-0.8606615188398337,0,http://www.porsche.es,,976 911 911 ,,,
174992,Centro Porsche VIGO,"Carretera de Madrid, 152",Vigo ,Pontevedra,36318,210,42.21657324321606,-8.68761334751025,0,http://www.porsche.es,,98 647 39 35,,,
174991,Centro Porsche VALENCIA,v,Quart de Poblet ,Valencia,v,210,39.48064053665317,-0.4560578316243209,0,http://www.porsche.es,,96 153 95 31,,,
174990,Centro Porsche TENERIFE,"C/ Carretera General del Rosario, 188",Taco ,Santa Cruz de Tenerife,38108,210,28.446961659007926,-16.292066429503848,0,http://www.porsche.es,,82 290 07 00,,,
174989,Centro Porsche SEVILLA,Av. Ruta de la Plata  3,Camas,Sevilla,41900,210,37.420691214721,-6.03056664243536,0,http://www.porsche.es,,95 425 35 06,,Polg.ind. Parque Plata,
174988,Centro Porsche PAMPLONA,"Calle A, nº 38-40",Noain,Navarra,31110,210,42.76948440307942,-1.632739694159568,0,http://www.porsche.es,,94 829 01 95,,Pol. Talluntxe 1  ,
174987,Centro Porsche MURCIA,"Ctra. de Madrid, nº 384",El Espinardo,Murcia,30100,210,38.02387218689856,-1.163460257524548,0,http://www.porsche.es,,96 885 93 46,,,
174986,Centro Porsche MARBELLA,"Ctra. Cadiz, Km. 175,3",Puerto Banus,Málaga,29660,210,36.49580106263579,-4.949930628898642,0,http://www.porsche.es,,95 290 79 11,,,
174985,Centro Porsche MARBELLA,"Ctra. Cadiz, Km. 175,3",Puerto Banus,Málaga,29660,210,36.49580106263579,-4.949930628898642,0,http://www.porsche.es,,95 290 79 11,,,
174984,Centro Porsche MADRID OESTE,"C/ Ciruela, 5",Majadahonda,Madrid,28220,210,40.45541624719556,-3.871293262927111,0,http://www.porsche.es,,91 634 78 10,,P.E. Carrelero II,
174983,Centro Porsche LAS PALMAS,"C/ Eufemiano Fuentes Cabrera, 3", Las Palmas de Gran Canaria,Las Palmas,35014,210,28.099069542649517,-15.43754947181992,0,http://www.porsche.es,,92 833 82 67,,Miller Bajo,
174982,Centro Porsche GIRONA,C/ De Lingen s/n,Salt ,Girona,17190,210,41.96852089123141,2.7796853464387823,0,http://www.porsche.es,,97 240 28 11,,Polígono Industrial La Maret,
174981,Centro Porsche BILBAO,Crta.Bilbao-San Sebastián km5,Galdacano,Vizcaya,48960,210,43.24458772421468,-2.8799066043309267,0,http://www.porsche.es,,944 745 780  ,,Pgno.Aperribai,
174980,Centro Porsche BARCELONA,"C/ Botánica, 89 ",L’Hospitalet de Llobregat ,Barcelona,08908,210,41.34916638891002,2.1266545004634736,0,http://www.porsche.es,,93 223 82 21,,,
174979,Centro Porsche BALEARES,"Camí dels Reis, 166",Palma de Mallorca,Islas Baleares,07011,210,39.594589806934835,2.636205105199565,0,http://www.porsche.es,,971 00 55 25,,Polígono Son Valenti,
174978,Centro Porsche ASTURIAS,Pol. Industrial Los Peñones s/n,Lugones,Asturias,33420,210,43.39485548582232,-5.81647401249711,0,http://www.porsche.es,,902 20 24 23,,,
174977,Centro Porsche ALICANTE,"Calle Río Turia, 16",Alicante,Alicante,03006,210,38.34659,-0.52295,0,http://www.porsche.es,,96 511 05 33,,,
174976,Centro Porsche A CORUÑA,Avda. das Mariñas 286,Oleiros,A Coruña,15172,210,43.329418957784696,-8.366133814964087,0,http://www.porsche.es,,98 114 55 44,,,
174975,INGETEAM EdRSR (DUO),"Carrer de Sant Joan, 104",Calella,Catalonia,08370,210,41.616544,2.660439,0,,,,,,
174974,Carrer de la Bisbal,"Carrer de la Bisbal, 45",Guissona,Catalonia,25211,210,41.783913,1.287524,0,,,,,,
174973,SELBA EdRDR 1 - ETECNIC,"Carrer de la Sort, 47",Navarcles,Catalonia,08270,210,41.750283152656806,1.90324098435849,0,,,,,,
174965,SELBA EdRSR - ETECNIC,"Carrer Camí de la Garriga, 3",Peralada,Catalonia,,210,42.30902638038549,3.012626588631747,0,,,,,,
174964,LAFON EdRR 1 - ETECNIC,Riera Ginjolers,Roses,Catalonia,17480,210,42.263661,3.179049,0,,,,,,
174910,Parking Public Xavea,Penáguila,Javea,Alicante,,210,38.79544239534985,0.17766109925435103,0,,,,,,
174898,EXPLOTACIONES ACCITANAS,EXPLOTACIONES ACCITANAS,Baza,Andalusia,18800,210,37.50799704169148,-2.737984611282627,0,,,,,,
174745,Rest. El Maragato,"Carretera Madrid - La Coruña, km 326",Astorga,Castile and León,24700,210,42.46513767545417,-6.07357706756261,0,,,,,,
174733,INGETEAM EdRSR 1 - ETECNIC,"Avinguda Onze de Setembre, 5",Constantí,Catalonia,43006,210,41.152482317711815,1.2168339944939817,0,,,,,,
174705,SELBA EdRSR - ETECNIC,Pavelló Municipal Poliesportiu del Garraf,Vilanova i la Geltrú,Catalonia,08800,210,41.23114262076672,1.7302007057287483,0,http://etecnic.es,,,,,
174704,LAFON EdRR -ETECNIC,"carrer dels Escolapis, 34",Vilanova i la Geltrú,Catalonia,08800,210,41.22228785787314,1.7264779458955672,0,http://etecnic.es,,,,,
174582,SELBA EdRSR 1 - ETECNIC,"Avinguda de Catalunya, 68",Alforja,Tarragona,43365,210,41.211433,0.97871,0,,,,,,
174577,Estación de Servicio GLG,"Carr. de León-Astorga, 12",Hospital de Órbigo,León,24286,210,42.46229699886865,-5.868799049820154,0,https://www.iberdrola.es/servicios/vehiculo-electrico/punto-recarga,,900 92 92 93,,,
174568,UAB - INGETEAM EdRSR 1 - ETECNIC,Avinguda de l'Eix Central,Cerdanyola del Vallès,Catalonia,08214,210,41.501502944145074,2.1063465420184,0,,,,,,
174567,UAB - INGETEAM EdRSR 2 - ETECNIC,Avinguda de Serragalliners,Cerdanyola del Vallès,Catalonia,08214,210,41.50386272855735,2.108454905306189,0,,,,,,
174541,E.S. Ballenoil Getafe,"Calle Franklin, 1",Getafe,Madrid,28906,210,40.3027299,-3.696051,0,,,,,,
174537,Carretera de Gijón a Sevilla,Carretera de Gijón a Sevilla,Aldeanueva del Camino,Extremadura,,210,40.26427323326527,-5.9195023297683065,0,,,,,,
174525,Ajuntament d'Aiguaviva,Ajuntament d'Aiguaviva,Aiguaviva,Catalonia,17162,210,41.938406563708725,2.761960891228796,0,http://etecnic.es,,,,,
174521,Gasolinera La Naranja,Carreterra de Churriana 26,Cúllar Vega,Granada,18195,210,37.14850851271417,-3.6628137906681104,0,,,,,,
174519,Grúas Carrillo,Calle Salar,Loja,Andalusia,18300,210,37.1600767642895,-4.124566304481391,0,,,,,,
174511,CIRCUTOR EdRSR 2 - ETECNIC,s/n Calle del Doctor Gortari,Pamplona,Comunidad Foral de Navarra,31012,210,42.8223373710446,-1.6684607499031472,0,http://etecnic.es,,,,,
174510,CIRCUTOR EdRSR1 - ETECNIC,"Calle Víctor Eusa, 1",Pamplona,Comunidad Foral de Navarra,31012,210,42.82978302522335,-1.6689202509726329,0,http://etecnic.es,,,,,
174507,INGETEAM EdRR1 - ETECNIC,Calle Yanguas y Miranda,Pamplona,Comunidad Foral de Navarra,31003,210,42.81185,-1.645529,0,http://etecnic.es,,,,,
174505,SELBA EdRSR 2 ,"Avinguda de Sant Vicenç, 2",Castellbisbal,Catalonia,08755,210,41.47765275652415,1.9822285285617909,0,http://etecnic.es,,,,,
174504,SELBA EdRSR 1,Avinguda de Pau Casals,Castellbisbal,Catalonia,08755,210,41.47626122085603,1.9821853958069369,0,http://etecnic.es,,,,,
174490,E. S. Martí Palau,Carrer d'Anselm Clavé,Palau-solità i Plegamans,Catalonia,08184,210,41.587960357820464,2.1794974157255638,0,,,,,,
174489,Ajuntament de Santa Margarida i Els Monjos,Avinguda de Catalunya,Santa Margarida i els Monjos,Catalonia,08730,210,41.32077727881955,1.6623183041469929,0,,,,,,
174488,Ajuntament d'Orís,Ajuntament d'Orís,Orís,Catalonia,08571,210,42.05818447062089,2.2388167432548016,0,http://etecnic.es,,,,,
174481,INGETEAM EdRSR 1 (DUO),Camí de la Petja,Tortosa,Catalonia,43500,210,40.79500161577437,0.5236816787186171,0,,,,,,
174480,LAFON EdRR 1 - ETECNIC,Carrer Barcelona 221 - 43518 - Tortosa,Tortosa,Catalonia,43518,210,40.79467172449782,0.5256309795581728,0,,,,,,
174477,Punt de recàrrega públic L'Ametlla de Mar,Carrer de Sant Joan,l'Ametlla de Mar,Catalonia,43860,210,40.8856016175686,0.8038702797164206,0,http://etecnic.es,,,,,
174472,La Canonja. Punto de recarga público,Carrer de la Marina,la Canonja,Catalonia,43480,210,41.12255767520017,1.1785952606534238,0,http://etecnic.es,,,,,
174471,Carrer de Banyuls - ETECNIC,Carrer de Banyuls,Espolla,Catalonia,17750,210,42.39151706380309,3.0024984448098166,0,http://etecnic.es,,,,,
174460,La Zenia Boulevard ,,Orihuela ,Alicante,,210,37.927990250189964,-0.736478616653244,0,,,,,,
174459,McDonald's,Fausto Caruana 47,Sagunto,Valencia,,210,39.67226481624073,-0.2518769490260411,0,,,,,,
174458,Centro Comercial Itaroa,,Huarte,Navarra,,210,42.82857197311762,-1.5836859162365045,0,,,,,,
174457,Leroy Merlin,Quintela,Ourense,Ourense,,210,42.354551592928374,-7.905645964713699,0,http://www.leroymerlin.es,Free,,,,
174385,McDonald's,McDonald's,Alcalá de Guadaíra,Andalusia,41016,210,37.37541645721744,-5.90893470088713,0,,,,,,
174384,E.S. Ballenoil,"Plaza P P Industrial Suroeste, 53",Carmona,Sevilla,,210,37.46093498371931,-5.656306625645016,0,,,,,,
174383,Gacosur Utrera,"Calle Ronda de los Torneros, 12",Utrera,Andalusia,,210,37.19829811543403,-5.795365780963948,0,,,,,,
174382,Área de Servicio El Caserío,Autovía de Andalucía,Aguadulce,Andalusia,,210,37.257161415547586,-4.985698511684518,0,,,,,,
174381,SHELL Restaurante El Hacho II,SHELL,La Roda de Andalucía,Andalusia,,210,37.275840084590214,-4.801126188126091,0,,,,,,
174380,AGIP ESPAÑA,AGIP ESPAÑA,El Ejido,Andalusia,04700,210,36.75818079851091,-2.8001333361993375,0,,,,,,
174379,Repsol E.S. San José,Repsol,Antequera,Andalusia,29250,210,37.112512156626835,-4.56692817566659,0,,,,,,
174378,Shell Motril,"Carretera Almeria, 50",Motril,Granada,18600,210,36.737515879429935,-3.5132821358693036,0,,,,,,
174370,Punt de recàrrega Caseres,Avinguda de Catalunya,Caseres,Catalonia,,210,41.04056822949869,0.2504464621514444,0,http://etecnic.es,,,,,
174369,Punt de recàrrega Ulldecona,Comerç,Ulldecona,Catalonia,43550,210,40.596174236475605,0.4494296545449288,0,http://etecnic.es,,,,,
174355,Flix Punt de Recàrrega Públic,Carrer del Mercat,Flix,Catalonia,,210,41.23108852005774,0.5515340065661576,0,http://etecnic.es,,,,,
174353,Punt de recàrrega Badia del Vallés,Avinguda de Burgos,Badia del Vallès,Catalonia,08214,210,41.50792874025964,2.1162112019718506,0,http://etecnic.es,,,,,
174352,Punts de recàrrega l'Espluga de Francolí,Carretera de l'Espluga de Francolí a Poblet T-700,l'Espluga de Francolí,Catalonia,43440,210,41.395214162239654,1.098486733416621,0,http://etecnic.es,,,,,
174286,Torrent 2 - Dir Castellón,GALP,Torrent,Valencian Community,46900,210,39.400693908360466,-0.49169083754497933,0,,,,,,
174285,Torrent 1 - Dir Alicante,AP7 km 519 dirección Alicante,Torrent,Valencia,,210,39.40040314960504,-0.49276932515704175,0,,,,,,
174260,Corbera de Llobregat - ETECNIC,"Carrer Josep Tarradellas, 2",Corbera de Llobregat,Catalonia,08757,210,41.41520780294749,1.9235747118768813,0,http://etecnic.es,,,,,
174254,Febrer Gasolineras. E.E.S.S.,"Camí de Son Rapinya, 30",Palma,Balearic Islands,07013,210,39.58504854884876,2.6189574276334042,0,http://etecnic.es,,,,,
174253,Febrer Gasolineras. E.E.S.S.,"Camí de Son Rapinya, 30",Palma,Balearic Islands,07013,210,39.58504854884876,2.6189574276334042,0,http://etecnic.es,,,,,
174230,Borges Blanques,Passeig del Terrall,Les Borges Blanques,Tarragona,25400,210,41.520052,0.867339,0,http://etecnic.es,,,,,
173245,gasolinera SUR-Oil,C/Loja esq. C/ Guadix,Granada,Granada,,210,37.22698182716937,-3.6409073593816856,0,,,,,poligono de Alborote,
173191,Asador Arraiz,"Arraiz Bidea, 116",Bilbao,Basque Country,48002,210,43.241469742661906,-2.960105565739468,0,,,,,,
173190,Copaboca Tienda,Calle Algarrada 4,Calahorra,Rioja,,210,42.30908633925728,-1.9550563360041906,0,,,,,,
173189,Restaurante Antolín,Calle Roldan,Minaya,Castile-La Mancha,,210,39.2741389789432,-2.325319327113675,0,,,,,"Carretera Madrid-Cartagena, km 195",
173113,Iberdrola Fast charge,56A Poligono Vega,Reinosa,Cantabria,39200,210,42.9943047,-4.1317872,0,,,,,,
173036,Cambrils Jaume I,Rambla de Jaume I,Cambrils,Tarragona,43850,210,41.067193140003155,1.0639182841944148,0,,,,,,
173034,Benzinera BonÀrea,"Carretera Riudoms, Km. 2,2, 43206 Reus",Reus,Tarragona,43206,210,41.1460666227413,1.0848247459681488,0,,"Al costat mateix de la benzinera, 6 places reservades",,,,
172854,EDRR mollerussa,Llorenç Vilaró,Mollerussa,Catalonia,25230,210,41.62491802371471,0.8939996238821095,0,,app evcharge,,,,
172829,Easycharger Manzanares,El Cruce,Manzanares,Castile-La Mancha,13200,210,39.006450327551875,-3.3836378937072595,0,,app easycharger,,,,
172613,Wenea ES Exoil Manises,62 Avenida de Mas de l'Oli,Manises,Valencian Community,46940,210,39.49825352086458,-0.48492970174152106,0,,Use app wenea,,,,
172600,Casa El Quemao,Puente de Villoslada,Villoslada de Cameros,Rioja,,210,42.1124172689951,-2.6723912126647065,0,,,,,,
172589,PRVE Hotel Zodiaco,"Carretera Madrid - Cádiz, km 294",Bailén,Andalusia,23710,210,38.09878683268346,-3.767002395085342,0,,,,,,
172588,PRVE Hotel Mirasierra,Hotel Mirasierra,Santo Tomé del Puerto,Castile and León,,210,41.1881343524735,-3.58361855333726,0,,,,,,
172576,Lasarte,81 Arrapide pasealekua,San Sebastián,Basque Country,20160,210,43.25435663746231,-2.0228802378337605,0,,,,,,
172558,Sarracín 2 - Dir. Madrid,Área de Servicio Sarracín,Sarracín,Castile and León,09620,210,42.24511613691814,-3.7062293099033923,0,,,,,,
172552,E.S. Torquemada,E.S. Torquemada,Torquemada,Castile and León,,210,42.03619213642639,-4.280527307305192,0,,,,,,
172344,EDRR Asador San Ramon,NII-a,Calatayud,Aragon,,210,41.35844896739724,-1.6156342139179287,0,,,,,,
172342,PDR estacion de autobuses,Calle Eras,Calamocha,Aragon,44200,210,40.91430505673205,-1.2967801596093977,0,,,,,,
172341,ES Molina de Aragon,,Cella,Aragon,,210,40.459409332843336,-1.2458304082022096,0,,,,,,
172340,Pdr estacion teruel,Camino de la Estación,Teruel,Aragon,44003,210,40.34100181257105,-1.1088821087269025,0,,,,,,
172338,Pdr Aj.Ademuz,,Ademuz,Valencian Community,46140,210,40.06591086930652,-1.2837524428500728,0,,,,,,
172337,Pdr Piscina benageber,Paseo de la Piscina,Benagéber,Valencian Community,,210,39.706272078524364,-1.1015094744202543,0,,,,,,
172335,PDR marquesina solar villar del arzobispo,Carretera de Villar a La Yesa,Higueruelas,Valencian Community,,210,39.73762989308858,-0.8215488870090439,0,,,,,,
172334,PDR Plaza de la Iglesia,Plaza de la Iglesia,Villar del Arzobispo,Valencian Community,,210,39.73071064220841,-0.825361263672221,0,,,,,,
172003,"Avenida Alcalde Gómez Laguna, 151","Avenida Alcalde Gómez Laguna, 151",Zaragoza,Aragon,50012,210,41.633855856680015,-0.9226168010663969,0,,Junto a la gasolinera.,800760255,,,
171830,"Wenea ""los Maños""",,Albentosa,Aragon,,210,40.114347132349394,-0.7403836762822493,0,,,,,,
171829,Ballenoil EndesaX,Carrer de Watt,Barberà del Vallès,Catalonia,08210,210,41.51571132164702,2.1309671215952903,0,,use app juicepass,,,,
171679,Edrr Torello,,Torelló,Catalonia,08570,210,42.04849249252237,2.2627691997630563,0,,use app evcharge,,,,
171657,McDonalds Soria,Calle del Naranjo 1,Golmayo,Soria,42190,210,41.77314625641176,-2.4997949131841324,0,,,,,,
171656,Ejea de los Caballeros - Cooperativa,"Carretera A-125, km 9 (Parking)",Ejea de los Caballeros,Aragon,,210,42.13215325003341,-1.1625385238218087,0,http://www.electromaps.com ,,,,,
171655,E.S. Rincon de la Barca,Carretera A-230 km 1.8,Caspe,Aragon,50700,210,41.24947773841555,-0.06806961526865507,0,,,,,,
171654,EndesaX Torelló,"Carrer del Pont, 4-6",Torelló,Barcelona,08570,210,42.04897690940592,2.2627167695284243,0,,use app juicepass,,,,
171629,Calle Mayor Alta,Calle Mayor Alta,Perales de Tajuña,Community of Madrid,,210,40.23976071376279,-3.352500975839689,0,,,,,,
171625,L'Ametlla de Mar (Endesa),Plaça del Poligon Industrial 3,L'Ametlla de Mar,Tarragona,43860,210,40.89436,0.782735,0,,,,,,
171543, IONITY Trigueros Norte,A-49,Trigueros,Andalusia,21830,210,37.334130900090244,-6.789462857362196,0,https://ionity.eu,,,,,
171542,Ionity Trigueros Sur,,Trigueros,Andalusia,21830,210,37.33183632816231,-6.802677462599263,0,https://ionity.eu/,,,,A-49,
171519,Calle Salar,Calle Salar,Barrio de San Antonio,Granada,18300,210,37.15978434484148,-4.124414118986124,0,,,,,Casería del Arroyo,
171518,IBERDROLA - Hotel Air Penedes,,Vilafranca del Penedès,Catalonia,08730,210,41.33019278982519,1.6777162742043856,0,,,,,,
171480,Vilacarburants (Endesa X),"Avinguda del Vallès, 8",Llissá de Vall,Barcelona,08185,210,41.57353101271201,2.211324919221397,0,,RFID Endesa X or Endesa X JuicePass APP,800760255,,,
171450,Sercotel Boulevard,Sercotel Boulevard,,,1013,210,42.860591,-2.663331,0,,,+34 945 18 04 00,,,
171348,EndesaX GasExpress Valladolid IV,Avda. Zamora 51,Valladolid,Valladolid,,210,41.61944621231328,-4.735721730822547,0,,,,,,
171338,Est Recàrrega VE,"Jaume I, 35 ",Palautordera,Barcelona,08461,210,41.69604515717003,2.4404478514909442,0,,,,,,
171131,EndesaX - GasExpress 24h,Avenida Europa 15,La Vall d'Uixó,Valencian Community,12600,210,39.8114811729956,-0.2274255810006025,0,,,,,,
171121,Iberdrola Gratis,Calle Julio Romero De Torres 25,Lucena,Andalusia,14900,210,37.4088284624234,-4.485830688479382,0,,,,,Patking,
171061,Carrefour Majadahonda,Calle de las Moreras,Majadahonda,Community of Madrid,28222,210,40.4530962253489,-3.869201915484382,0,,Hay que llamar al guardia de seguridad,,,,
171021,EndesaX,Avenida de los hermanos Bou,Castellón de la Plana,Valencian Community,12100,210,39.97543983279047,-0.001994520878270123,0,,,,,,
171020,Iberdrola santa margdalena de polpis,Carrer d'Alcalà,Santa Magdalena de Polpís,Castellón,12597,210,40.35543930028092,0.30121675426539696,0,,,,,,
171019,Carrer Josep Maria Pericàs,Carrer Josep Maria Pericàs,Ripoll,Catalonia,17500,210,42.19031602094873,2.1963706604963136,0,,,,,,
171018,Endesa X,Ronda de Mar 30,Vilafranca del Penedès,Catalonia,08720,210,41.33506572445168,1.700360680202948,0,,,,,,
170975,Hostal del Camp,Hostal del Camp,Sallent,Catalonia,08270,210,41.78956237625951,1.8980154489356664,0,http://www.cargacoches.com,app ChargeandParking,961679024,,,914047905
170974,el Bruc,el Bruc,el Bruc,Catalonia,,210,41.59460729841345,1.7675797034154357,0,http://www.cargacoches.com,app ChargeandParking,961679024,,,914047905
170973,Calle las Barracas,Calle las Barracas,Benicasim/Benicàssim,Valencian Community,12560,210,40.04064557889211,0.05259178617825455,0,http://www.cargacoches.com,app ChargeandParking. access code app inside,961679024,,,914047905
170972,Polígono industrial La Vega,Polígono industrial La Vega,Campoo de Enmedio,Cantabria,39213,210,42.98706417205349,-4.134726731573551,0,http://www.cargacoches.com,app ChargeandParking,961679024,,,914047905
170971,Carrer Paborde,Carrer Paborde,Alp,Catalonia,,210,42.34583429441676,1.957161179767695,0,http://www.cargacoches.com,app ChargeandParking,961679024,,,914047905
170969,Avinguda de la Cerdanya,Avinguda de la Cerdanya,Alp,Catalonia,,210,42.33733808367802,1.936481272379524,0,http://www.cargacoches.com,app ChargeandParking,961679024,,,914047905
170968,Carrer de la Mancomunitat,Carrer de la Mancomunitat,Alp,Catalonia,17537,210,42.3731552977934,1.884602739048887,0,http://www.cargacoches.com,app ChargeandParking,961679024,,,914047905
170958,Campanille - iberdrola,Campanille - Barcelona,Barberà del Vallès,Catalonia,08210,210,41.50816495950545,2.1356087274521087,0,,,,,,
170956,Mercadona Cuatrocientas Viviendas,"Av. Antonio Ramos Carratalá, 175",Alicante,Alicante,03015 ,210,38.36978271258789,-0.4763780640641926,0,http://www.mercadona.es/,,+34965555899,,,
170788,Endesa X,,Jaén,Andalucia,,210,37.77888081779503,-3.756653235949898,0,http://www.endesax.com,,,,,
170787,Valdepeñas - Wenea,,Valdepeñas,Ciudad Real,,210,38.789637839260706,-3.393802347141218,0,http://www.wenea.com,,,,,
170633,Carretera de Torrenostra,Carretera de Torrenostra,Torreblanca,Valencian Community,12596,210,40.195518,0.224182,0,,,,,,
170603,Carrer Finlandia - Mataró,"Finlandia, 2",Mataró,Catalunya,08304,210,41.54948473921024,2.431892290756764,0,https://www.etecnic.es/,,010,,,
170602,Muralla de la Presó,"Muralla de la Presó, 14",Mataró,Catalonia,08301,210,41.541459405523426,2.4430186506154996,0,https://www.etecnic.es/,,010,,,
170581,EndesaX Petromiralles,,Vilafranca del Penedès,Barcelona,,210,41.33892604040821,1.6880981567785511,0,http://www.endesax.com,,,,,
170310,E.S. Palacios de Goda - Repsol,Autovia del Noroeste 135,Palacios de Goda,Avila, 05215,210,41.13275518320367,-4.77727127248761,0,,,,,,
170309,Meson Ezequiel,carretera de Asturias 7,Villamanin,Leon,24680,210,42.93862,-5.659568,0,,,,,,
170286,PDR jutjats granollers,Carrer de Josep Umbert,Granollers,Catalonia,08402,210,41.603478715204204,2.293624047318076,0,,app evcharge,,,,
170285,EDRR Camp de les Moreres,Carrer Camp de les Moreres,Granollers,Catalonia,08400,210,41.60016402471078,2.280605766480562,0,,app evcharge,,,,
170284,PDR Ajuntament de Canovelles,Ajuntament de Canovelles,Canovelles,Catalonia,08420,210,41.621586647773,2.27705704455866,0,,usar app evcharge,,,,
170228,Aj.Cardedeu (poligono),Avinguda del Vallès,Cardedeu,Catalonia,08440,210,41.625646443839116,2.362566120349811,0,,app evcharge,,,,
170224,H. el Carme,,Vilagrassa,Catalonia,25330,210,41.64756176101952,1.1033011369274845,0,http://www.cargacoches.com,,961679024,,,914047405
170223,Carrer Barreiros,Carrer Barreiros,Llers,Catalonia,17600,210,42.29987998902297,2.937432729565103,0,http://www.cargacoches.com,,961679024,,,914047405
170222,Cal Bernat,Cal Bernat,Prats de Lluçanès,Catalonia,,210,42.009190020866384,2.027777645811966,0,http://WWW.CARGACOCHES.COM,,961679024,,,914047405
170218,Obispo Zarranz y Pueyo 60,Mesón El Bosque,Béjar,Castile and León,37700,210,40.38820051870738,-5.751957962550591,0,,,,,,
170177,Mataró-DBT EdRR,"Carretera N-2,88 Mataró, Barcelona Spain",Mataró,Barcelona,,210,41.52414212028498,2.4267976948549403,0,https://etecnic.es/,,977276952,,,010
170141,Finca Solmark,Camino de Las Minas,Carratraca,,29551,210,36.839959,-4.821313,0,,,+34 637 481 860,,,
170139,Lugo Supercharger,Rua Veiga Grande S/N,Lugo,,27003,210,43.03653,-7.568994,0,,,,,,
170125,Galp Villagordo (dir.Valencia),GALP,Villargordo del Cabriel,Valencian Community,,210,39.525995780577034,-1.4369486339282957,0,https://easycharger.es,,,,,
170117,Carrer del President Companys,Carrer del President Companys,Vandellòs i l'Hospitalet de l'Infant,Catalonia,43892,210,40.99990817236997,0.916837240000973,0,,app evcharge,,,,
170086,Campo de las Naciones [Ionity],,Madrid,Community of Madrid,28043,210,40.4586597063425,-3.616439551963026,0,https://ionity.eu,,,,,
170058,Galp,Galp,Sarracín,Castile and León,09620,210,42.24597109279489,-3.7031419592266275,0,https://easycharger.es,,979 300 500,,,
170042,Plaza de Aragón con Calle via taurina,,Barbastro,"Spain, Huesca",,210,41.3854895465949,2.1554940823924653,0,,,,,,
170040,Sabadell (Endesa x),Carrer de Ramon Llull,Sabadell,Catalonia,08203,210,41.532282123089146,2.1064352554478774,0,,app juicepass,,,,
169918,Easycharger Lleida,Carrer de la Variant,,Catalunya,25123,210,41.663988107444396,0.6049233010688795,0,,app easycharger,,,,
169915,Santi enrique sabadell,Carrer d'Apelles Mestres,Sabadell,Catalonia,08203,210,41.52640631461634,2.101644227590782,0,,app nissancharge,,,,
169914, Alcover - LAFON EdRR 1 PIRVEC-66,Camí de la Font Fresca,,Catalunya,43460,210,41.26136557566767,1.1650520923401473,0,,use app evcharge,,,,
169913, EdRR Santa Coloma de Queralt PIRVEC-61,Carrer de Sant Vicenç,,Catalunya,43420,210,41.53144305823426,1.3819002916391128,0,,usar app evcharge,,,,
169893,Bricomart Zaragoza,"Calle Alejandro Volta, 1",Zaragoza,Zaragoza,50014,210,41.66835026702816,-0.8605531360462919,0,http://www.bricomart.es,"Entrada por la calle Juan de la Cierva, 15, o por la calle Alejandro Volta, 1.",876 00 50 31,,"Calle Juan de la Cierva, 15",
169830,CARGACOCHES - Vallfogona de Ripollés,"Carrer camí del cementiri, 2",Vallfogona de Ripollès,Catalonia,17860,210,42.19724597375517,2.305741667022403,0,http://www.chargeandparking.com,ChargeandParking app,961679024,,,914047905
169824,Plaça del Camp,Plaça del Camp,Solsona,Catalonia,25280,210,41.993607325254885,1.515323447272408,0,,usar app evcharge,,,,
169823,Plaça de Sant Roc,Plaça de Sant Roc,Solsona,Catalonia,25280,210,41.99604891499942,1.5171969192214192,0,,usar app evcharge,,,,
169822,EdRR Pinyana - Vielha (N230) PIRVEC-35,Carrer de Gandhi,,Catalunya,25008,210,41.63000201832949,0.6213173089988686,0,,,,,,
169820,Avinguda de la Font de Valldans,Avinguda de la Font de Valldans,Ponts,Catalonia,,210,41.91539165741804,1.1853273594565508,0,,,,,,
169588,EdP Hotel Villa de Ferias,4 Avenida del V Centenario de Isabel la Católica,Medina del Campo,Castile and León,47400,210,41.301531762318746,-4.908739972797889,0,http://www.edpmoveon.com,,,,,
169375,Easycharger Arevalo,Easycharger Arevalo,Arevalo,Avila,05200,210,41.05265727426385,-4.699823155145623,0,,,,,,
169360,GIV-5273,GIV-5273,la Vall d'en Bas,Catalonia,,210,42.121535,2.423641,0,,,,,,
169282,plaza Antonia Guerror,,Estepona,,,210,36.4276552740082,-5.1450005777548995,0,,,,,,
169028,Casa Club Calanova Golf,Casa Club Calanova Golf,Mijas,Andalusia,29650,210,36.51325497949142,-4.712439123883769,0,,,,,,
168948,Centro Porsche Madrid Norte,"Avda. De Burgos, 87",Madrid,Madrid,28050,210,40.4902436127941,-3.6733219711926495,0,http://www.porsche.es,,+34 91 203 54 10,,,
168884,Restaurante Jardinito II,"N-IV, 1",Montoro,Córdoba,14600,210,38.010634147407984,-4.376479225341086,0,,,,,,
168853,Ballenoil Paiporta,Acequia de Favara 5,Paiporta,Valencia,,210,39.435163811946126,-0.40623819178961185,0,,,,,,
168839,E.S. GasExpress,Calle Médico Federico Martínez Perez 1,Elda,,,210,38.46497665319313,-0.785605932491535,0,,,,,,
168838,E.S. Los Ibones, Paseo Lagos de Alba 2,Zaragoza ,Zaragoza ,50011,210,41.660839263048445,-0.9272743489009372,0,,,,,Autovía Logroño,
168825,Restaurante El Cañuelo - Monturque,Carretera N-331 km 60,Monturque,Córdoba,14930,210,37.476296975995965,-4.588960754829259,0,,,,,,
168824,Cepsa Jaima Park,A-4,Guarromán,Jaén,23210,210,38.17819994781257,-3.6986201002445114,0,,,,,,
168823,Hotel Santa Cruz,Autovía del Sur,Santa Cruz de Mudela,Ciudad Real,13730,210,38.63627435283263,-3.472506455926805,0,,,,,,
168822,E.S. Galapagar,"Calle de Badalona, 1",Galapagar,Madrid,28292,210,40.62538571376183,-4.028027402370071,0,,,,,,
168819,E.S La Gran Familia,"Autovía Ruta de la Plata, Km 657",Villafranca de los Barros,Badajoz,06220 ,210,38.62021143709359,-6.367388643053232,0,,,,,,
168818,QualityFuel,"Calle Electricista, 1 ",Villafranca de los Barros,Badajoz,06220 ,210,38.557109484777754,-6.359527454340878,0,,,,,,
168708,Plaza de la Feria,Plaça Fira,Borriana,Castelló,12530,210,39.89235612221037,-0.08211924202282717,0,,Access via ElectroMaps,,,,
168388,Centro Comercial Torre Sevilla,Calle Gonzalo Jiménez de Quesada 2,Sevilla,,41092,210,37.391426,-6.010484,0,,,+34 662 41 80 60,,,
168383,Gran Talaso Hotel Sanxenxo,Paseo Praia de Silgar 3-9,Sanxenxo,,36960,210,42.399536,-8.816644,0,,,+34 986 69 11 11,,,
168379,Hotel Vincci Selección Rumaykiyya,Urbanización,18196 Sierra,Sierra,18196,210,37.094357,-3.392802,0,,,+34 958 482 508,,,
168228,Ayuntamiento Reocin,"Barrio Puente San Miguel, 95",Puente San Miguel,Cantabria,39530,210,43.35982471121321,-4.086576552670181,0,,,,,,
168228,Ayuntamiento Reocin,"Barrio Puente San Miguel, 95",Puente San Miguel,Cantabria,39530,210,43.35982471121321,-4.086576552670181,0,,,,,,
168228,Ayuntamiento Reocin,"Barrio Puente San Miguel, 95",Puente San Miguel,Cantabria,39530,210,43.35982471121321,-4.086576552670181,0,,,,,,
168126,Carrer de l'Aliança,Carrer de l'Aliança,Lliçà d'Amunt,Barcelona,08186,210,41.61075794334056,2.240075349591052,0,https://www.e-mobilitat.cat,"Com puc activar un punt de càrrega? El punt només es pot activar amb el codi QR: Al punt de càrrega hi han dos codis QR (un per cada connector). Amb el teu telèfon intel·ligent o smartphone i un programa lector de codis QR com ara Lector QR, escaneja el codi i t’apareixerà una pantalla; introdueix-hi les teves dades (DNI i el pin assignat en registrar-te) i podràs començar a carregar el vehicle. Com puc aturar la càrrega del meu vehicle? Escaneja el codi i t’apareixerà una pantalla; introdueix-hi les teves dades (DNI i el pin assignat en registrar-te) i la càrrega s’aturarà i s’obrirà la tapa perquè puguis extreure l’endoll. Cal registrar-se a la web: https://www.e-mobilitat.cat No funciona amb targetes RFID",900 250 260,,,
168072,Casa,Calle Marsella,Madrid,Madrid,28022,210,40.470303601987865,-3.697020104053877,0,,,,,,
168068,"Calle de Severo Ochoa, 8",,Las Rozas de Madrid,Community of Madrid,28232,210,40.52174992849311,-3.896507049848651,0,,,,,,
168034,Parking Ciutat de la Justícia de Barcelona i l'Hospitalet,"Avinguda del Carrilet, 3",l'Hospitalet de Llobregat,Barcelona,082028,210,41.365390778041075,2.1325966642230014,0,http://www.ciutatdelajusticia.com/,,934 217 365,ciutatdelajusticia@vestapark.com,,
168022,Calle del Rabel,Calle del Rabel,Renedo de Esgueva,Valladolid,47170,210,41.643270246079254,-4.653377586261854,0,,,,,,
168006,circuit del Llac,circuit del Llac,,Islas Baleares,07408,210,39.8065664,3.1096831999999996,0,,,,,,
167703,ahorramas espartal,"Av. Gustavo Adolfo Bécquer, 19",Alcalá de Henares,Madrid,28806,210,40.51096047453092,-3.367009332042926,0,http://www.ahorramas.es,Pedir tarjeta de EDP en las cajas,,,,
167631,Iberdrola Av.Gerardo Diego 2,Av.Gerardo Diego 2,Segovia,Segovia,40006,210,40.93530044572884,-4.101589633961112,0,,,,,,
167623,12 Bitoriabidea,12 Bitoriabidea,Vitoria-Gasteiz,Basque Country,01010,210,42.86248195397576,-2.705832547459295,0,,,,,,
167622,Calanda - Hotel Balfagon,Avenida Autonomia Aragonesa 58,Calanda,Teruel,44570,210,40.94307512656917,-0.23257709049926234,0,,,,,,
167616,25 Fernando Erregea kalea,25 Fernando Erregea kalea,Irun,Basque Country,20301,210,43.33832610335219,-1.807901824125679,0,,,,,,
167564,PDR Mercadona,Ronda de Tolosa,Barcelona,Barcelona,08211,210,41.6041490855917,2.0870026638185664,0,,,,,,
167497,Avenida País Valencia 9,Av. Pais Valencia 9,la Vila Joiosa,Valencian Community,03570,210,38.50623386765932,-0.23159723443893654,0,,,,,,
165660,Área de Servicio Valcarce,Área de Servicio Valcarce,Vega de Valcarce,Villafranca,24524,210,42.658955268055934,-6.914249023715456,0,https://www.iberdrola.es/movilidad-electrica/recarga-fuera-de-casa,Iberdrola charging point,,,La Portela de Valcarce,
165483,Aldi San Gabriel,calle Concentaina,Alacant,Valencian Community,03007,210,38.33068587135915,-0.5127213637067598,0,,,,,,
165482,Hotel Campanile,calle nadadora Carmen Soto,Alicante,Alicante,03006,210,38.33698526918002,-0.5019803056488854,0,,Dentro del Hotel Campanile,,,San Fernando - Princesa Mercedes,
165461,Atalaya Golf & Country Club,Atalaya Golf & Country Club,,,29688,210,36.482533,-5.016882,0,,,+34 952 88 28 12,,,
165456,Sercotel Coliseo Bilbao,Alameda de Urquijo,Bilbao,Bizkaia,48008,210,43.260241,-2.931061,0,,,+34 94 679 2931,,,
165454,One Ocean Club,Moll de la Barceloneta,1,Barcelona,8003,210,41.380261,2.186361,0,,,+34 934 84 23 15,,,
165453,Almaraz Supercharger,Restaurant Portugal Ii KM 200,Almaraz,,10350,210,39.791678,-5.695391,0,,,,,,
165449,H10 Punta Negra,C/ Punta Negra,Costa d'en Blanes,Islas Baleares,7181,210,39.527597,2.552744,0,,, +34 971 68 07 62,,,
165448,Parador el Saler,Avenida de los Pinares,151,El Saler,46012,210,39.320359,-0.302475,0,,,+34 961 611 186,,,
165445,Hotel Mirador,Plaza de Sant Pere,4,Lles de Cerdanya,25726,210,42.391831,1.687148,0,,,+34 973 515 075,,,
165443,Lobito de Mar,Av. Bulevar Príncipe Alfonso de Hohenlohe,178,Marbella,29602,210,36.507886,-4.916903,0,,,+34 951 554 554,,,
165441,Restaurante Baratze - Camping Urrobi,Ctra. Pamplona - Valcarlos,Km. 42,Aurizberri,31694,210,42.97314,-1.352134,0,,,+34 948 760 200,,,
165440,Hotel Vincci Valdecañas Golf,Hotel Vincci Valdecañas Golf,,,10392,210,39.837071,-5.379258,0,,, +34 927 61 07 30,,,
165437,El Corte Ingles Castellana,Calle de Raimundo Fernández Villaverde,79,Madrid,28003,210,40.446884,-3.69471,0,,,+34 914 18 88 00,,,
165432,Morada Da Moa,Carretera General Cee - Carnota,311,Coruna,15296,210,42.893194,-9.134705,0,,,+34 981 76 00 85,,,
165430,Hotel Silken Puerta Madrid,Calle de Juan Rizi,5,Madrid,28027,210,40.447802,-3.63562,0,,,+34  917 438 300,,,
165428,Caldes de Malavella Supercharger,KM 701 Carretera N-Ii,Caldes de Malavella,,,210,41.859029,2.767237,0,,,,,,
165427,Restaurante Cocinandos,Plaza de San Marcos,5,Leon,24001,210,42.601971,-5.58136,0,,,+34 987 071 378,,,
165426,El Corte Ingles Malaga,Calle Hilera,8,Malaga,29002,210,36.71865952,-4.43010807,0,,,+34 952 076 500,,,
165425,Hotel Intur Castellon,Carrer d'Herrero,20,Castellons de la Plana,12002,210,39.981619,-0.039607,0,,,+34 964 225 000,,,
165420,Hotel Santa Marta,Playa de Santa Cristina,Lloret de Mar,,17310,210,41.689476,2.818164,0,,,+34 972 364 904,,,
165418,Museu Moto Bassella,Crta. C-14,Bassella,,25289,210,42.00622,1.294002,0,,,+34 973 462 731,,,
165416,Hotel Palau Lo Mirador,Paseo de la Iglesia,Torroella de Montgri,,17257,210,42.043612,3.124712,0,,,+34 972 75 80 63,,,
165410,Parador de Soria,Parador de Soria,,,42005,210,41.762577,-2.457695,0,,, +34 975 24 08 00 0,,,
165409,Hotel Reimar Rooms and Residences,Passeig Torre Valentina,2,Sant Antoni de Calonge,17252,210,41.838194,3.09309,0,,,+34 972 652 211,,,
165408,Hotel O'semaforo Finisterre,Carretera del Faro,s/n,Finisterre,15155,210,42.88314,-9.271944,0,,,+34 981 11 02 10,,,
165405,Hotel H10 Vintage Salou,Calle Birmingham,Salou,,43840,210,41.077728,1.143188,0,,,+34 977 381 400,,,
165404,Hotel Palacio de Villapanés Sevilla,Calle Santiago 31,Sevilla,,41003,210,37.391629,-5.986467,0,,,+34 954502063,,,
165402,Hotel Benabola,Calle Benabola,3,Marbella,29660,210,36.485294,-4.954906,0,,,+34 952 815 000,,,
165401,La Posada del Buen Camino,Calle de la Cruz,Villanueva de Campean,,49708,210,41.354917,-5.76976,0,,, +34 620 23 53 22,,,
165400,Castilla Termal Monasterio de Valbuena,Calle Murallas,s/n,San Bernardo,47359,210,41.629562,-4.261603,0,,,+34 983 68 30 40,,,
165390,Beach Club Estrella del Mar,Beach Club Estrella del Mar,,,29604,210,36.493051,-4.786429,0,,,+34 951 05 39 90,,,
165379,Sendaviva Park,Carretera Virgen del Yugo,Arguedas,Navarra,31513,210,42.188448,-1.579636,0,,,+34 948088100,,,
165376,Hotel Maisonnave,Hotel Maisonnave,,,31001,210,42.817386,-1.645072,0,,,+34 948222600,,,
164373,Sofraga Palacio Restaurante,Calle Lopez Nuñez,1,Avila,5001,210,40.657685,-4.697594,0,,,+34 920 254 080,,,
164369,Centro Comercial l'Illa Diagonal,Av. Diagonal,559,Barcelona,8029,210,41.389153,2.133131,0,,,+34 934 194 366,,,
164367,Sant Cugat Supercharger,Hotel the Site Sant Cugat 15-17 Cami de Can Camps,San Cugat,Barcelona,,210,41.498096,2.072692,0,,,,,,
164363,Casa Da Feira - Turismo Rural,Lugar Da Portaxe,9,Lobios,32879,210,41.909257,-8.074,0,,,+34 988 448 138,,,
164361,Hotel Monumento Pazo de Orbán,Rua Do Miño,6,Lugo,27001,210,43.01018,-7.560248,0,,,+34 982 240 217,,,
164360,Majestic Hotel & Spa Barcelona GL,Passeig de Gracia,68,Barcelona,8007,210,41.393632,2.164516,0,,,+34 934 881 717,,,
164354,Senator Banús Spa Hotel,Crta Nacional 340,Km 168,Estepona,29680,210,36.466209,-5.024751,0,,,+34 902 533 532,,,
164353,Casa Rural Mas Roselló,Cami Mas Palli,7,Calonge,17251,210,41.84603,3.070962,0,,,+34 972 652 452,,,
164352,Hotel Spa la Casa del Rector,C/ Pedro Oviedo,8,Almagro,13270,210,38.888267,-3.717387,0,,,+34 926 261 259,,,
164349,Centro Comercial Albacenter,Calle Alcalde Conangla,s/n,Albacete,Albacete,210,38.990408,-1.846801,0,,,+34 967 246 700,,,
164348,Sercotel Luna de Granada,Plaza del Guitarrista Manuel Cano,Granada,,18004,210,37.176648,-3.612316,0,,,+34 958 28 29 13,,,
164345,Hotel Alga,Avenida Joan Pericot I Garcia,Calella de Palafrugell,Girona,17210,210,41.89169,3.184338,0,,, +34 972 617 080,,,
164341,Metropolitan Iradier,Carrer de les Escoles,105,Barcelona,8017,210,41.404989,2.126534,0,,,+34 932 54 17 17,,,
164340,Parador de Cardona,Castell de Cardona,s/n,Cardona,8261,210,41.914318,1.68565,0,,,+34 938 691 275,,,
164339,Casa Rural Rustic Vilella,Cal Pere Vilella,s/n,Gisclareny,8695,210,42.249684,1.820553,0,,,+34 637 536 350,,,
164338,The Westin Valencia,Carrer d'Amadeu de Savoia,Valencia,,46010,210,39.472816,-0.360725,0,,,+34 963 62 59 00,,,
164335,Las Colinas Golf & Country Club,Av. de Las Colinas,2,San Miguel de Salinas,3189,210,37.930176,-0.805553,0,,,+34 965 32 40 04,,,
164327,Admiral Casino & Lodge,Carretera Cadiz-Malaga,Km 124,San Roque,11360,210,36.230654,-5.357473,0,,,+34 956 926 513,,,
164326,Manzanares Supercharger,Restaurante el Cruce KM 173 Autovia de Andalucía Manzanares,Manzanares,,13200,210,39.006311,-3.383035,0,,,,,,
164321,Comunidad General Parque Comercial Talavera,Carretera N-V,km 114,Talavera de la Reina,45600,210,39.96643,-4.796442,0,,,+34 616414685,,,
164305,Centro Comercial la Maquinista,Paseo Potosi,2 - Planta -1,Barcelona,8030,210,41.439933,2.198663,0,,,+34 933 608 971,,,
164303,Centro Comercial Urbil,Poligono Asteasuain,7,Usurbil,20170,210,43.275393,-2.021506,0,,,+34 943 364 187,,,
164299,Senator Barcelona Spa Hotel,Carrer del Cardenal Reig,11,Barcelona,8028,210,41.37769,2.1136,0,,,+34 932 60 99 00 ,,,
164298,Hotel Tuca - RV Hotel Turistics,Carretera de Baqueira,25,Vielha,25539,210,42.697085,0.805363,0,,,+34 973 64 07 00,,,
164297,Guarromán Supercharger,Restaurante Andamur SN Polígono Industrial de Guadiel Guarromàn,Guarromàn,,,210,38.143036,-3.722849,0,,,,,,
164296,Costa del Sol Luxury Boutique Torremolinos,Paseo del Colorado,Torremolinos,,29620,210,36.632292,-4.492533,0,,,+34 951 49 50 50,,,
164293,Hotel Barcelo Cabo de Gata,Calle de los Juegos de Casablanca,s/n,Retamar,4131,210,36.838467,-2.323943,0,,,+34 950 184 250,,,
164292,Bodega los Aljibes,Camino de Chinchilla A Pinilla,Chinchilla de Monte-Aragón,,2520,210,38.779279,-1.589638,0,,,+34 967 260 015,,,
164291,Coral Beach Resort,Urb. Coral Beach,Marbella,,29602,210,36.498158,-4.94103,0,,,+34 952 77 50 00,,,
164289,Centro Comercial Glories (PKG-1),Carrer del Perú,22,Barcelona,8018,210,41.404389,2.190296,0,,,+34 934 860 230,,,
164288,Hotel Barosse,Calle Estiras,4,Baros,22712,210,42.546625,-0.527535,0,,,+34 974 360 582,,,
164287,Hotel la Garriga de Castelladral,Ctra de Suria A Castelladral,Km 5.,Castelladral,8671,210,41.868135,1.762399,0,,,+34 938 682 250,,,
164284,Temple Hoteles,Avenida Portugal,Ponferrada,,24400,210,42.546988,-6.60526,0,,,+34 987 41 00 58,,,
164278,Atalaya del Cañavate Supercharger,Area 175 Autovia A-3,Cuenca,,,210,39.538678,-2.254568,0,,,,,,
164275,B&B Hotel Granollers,Calle Valldoriof,1,Can Franqueses,8520,210,41.614222,2.304058,0,,,+34 938 407 132,,,
164270,Centro Comercial la Vital,Avenida de la Vital,10,Gandia,46701,210,38.968608,-0.169168,0,,,+34 962 881 070,,,
164269,Hotel Hilton Garden Inn Malaga,Avenida de Velazquez,Malaga,,29004,210,36.689252,-4.459914,0,,,+34 952 23 31 22,,,
164263,Madrid Supercharger,Paseo de la Castellana 100,Madrid,,28001,210,40.443856,-3.691665,0,,,,,,
164257,Almadraba Park Hotel,Avinguda Diaz Pacheco,70,Roses,17480,210,42.242349,3.203249,0,,,+34 972 256 550,,,
164256,El Corte Ingles Sevilla Este,Carretera Sevilla - Malaga,Km 1,Sevilla,41020,210,37.387608,-5.93937,0,,,+34 954 269 600,,,
164255,Hotel el Cruce,Hotel el Cruce,,,13200,210,39.006986,-3.383824,0,,,+34 926 61 19 00,,,
164254,Wellbourne Restaurant,Mòla de Salardú,Salardú,,25598,210,42.70546,0.904814,0,,,+34 973 64 46 86,,,
164253,Hotel Class Valls,Passeig President Tarradellas,Ctra.N-240,Tarragona,43800,210,41.299504,1.261364,0,,,+34 977 60 80 90,,,
164251,Hotel Carlton,Plaza Federico Moyua,2,Bilbao,48001,210,43.262414,-2.934899,0,,,+34 944 162 200,,,
164250,Aparcamientos Ubeda,Plaza Andalucia,Ubeda,,23400,210,38.011117,-3.371597,0,,, +34 953 75 32 68,,,
164243,Hotel Maydrit,Calle Piragua,Madrid,,28042,210,40.451572,-3.592847,0,,,+34 911 969 200,,,
164241,Hotel Echaurren Relais & Chateaux,Calle Padre Jose Garcia,19,Ezcaray,26280,210,42.325623,-3.01466,0,,,+34 941 354 047,,,
164238,Aparcamiento Mirador de Santa Justa - Insur,Avda. Kansas City,s/n,Sevilla,41018,210,37.390211,-5.973704,0,,,+34 627 95 43 88,,,
164236,Hotel Restaurante la Carreta,A-3,Km. 334,Chiva,46370,210,39.474838,-0.613776,0,,,+34 961 805 400,,,
164234,Pazo Da Merced,Pazo Da Merced,S/N,Neda,15510,210,43.492998,-8.162273,0,,,+34 981 382 200,,,
164235,Axor Hoteles,Calle Campezo,Madrid,,28022,210,40.447451,-3.583039,0,,,+34 913 121 960,,,
164233,Hotel Ibis Murcia,C/ Madre Paula Gil Cano,Murcia,,30009,210,38.002559,-1.142895,0,,, +34 968274939,,,
164231,Hotel B&B Girona,Cami Dels Carlins,10,Salt,17190,210,41.965813,2.783274,0,,,+34 972 439 487,,,
164230,Hotel Spa Playaballena,Avd Juan Carlos I,s/n,Rota,11520,210,36.689131,-6.416068,0,,,+34 956 849 044,,,
164228,Centro Comercial Habaneras,Avenida Rosa Mazon Valero,7,Torrevieja,3184,210,37.989691,-0.687735,0,,,+34 965 71 23 00,,,
164227,Hotel Barcelo Caceres V Centenario,Manuel Pacheco,Caceres,,10005,210,39.473875,-6.398395,0,,,+34 927232200,,,
164226,Zielo Shopping Pozuelo,Avenida de Europa 26,Pozuelo de Alarcon,,28224,210,40.441629,-3.783134,0,,,+34 917 093 398,,,
164225,Termas de Cuntis,Rua Do Balneario,1,Cuntis,36670,210,42.633333,-8.563889,0,,,+34 986 532 525,,,
164223,Silken Palacio Uribarren,Hiribidea,Lekeitio,,48280,210,43.362975,-2.50208,0,,,+34 946 24 35 83,,,
164219,Europar Plazas,Doctor Castelo,Madrid,,28009,210,40.420352,-3.673746,0,,, + 34 602 630 773,,,
164215,Gran Hotel Havana,Gran Via de les Corts Catalanes,647,Barcelona,8010,210,41.39277,2.171705,0,,,+34 933 417 000,,,
164207,El Meson de Fuencarral,Carretera de Colmenar Viejo,Km 14,Madrid,28049,210,40.529708,-3.693392,0,,,+34 917 341 019,,,
164193,Sevilla Supercharger,Calle Camino de los Descubrimientos Sevilla,Sevilla,,,210,37.391485,-6.009627,0,,,,,,
164189,Hotel Catalonia Reina Victoria Wellness & Spa,Calle Jerez,Ronda,,29400,210,36.746889,-5.169294,0,,,+34 952871240,,,
164186,Hotel Y Casas Can Bassa,Carretera de la Pera,Madremanya,,17462,210,41.989807,2.958141,0,,, +34 648 100 001,,,
164184,Bodegas la Rioja Alta,Av. Vizcaya,Haro,,26200,210,42.584482,-2.846937,0,,, +34 941 31 03 46,,,
164183,Hotel los Monteros Spa & Golf Resort,Carretera de Cadiz,Km 187,Marbella,29603,210,36.506077,-4.824983,0,,,+34 952 86 11 99,,,
164181,Albacete Supercharger,KM 52 la Gineta,Albacete,,2110,210,39.134675,-2.039013,0,,,,,,
164179,Ayuntamiento de Arties,Calle Mola,6,Arties,25599,210,42.699966,0.873265,0,,, +34 973 64 40 30,,,
164177,Parador de Nerja,Calle Almunecar,8,Nerja,29780,210,36.74998,-3.87133,0,,,+34 952 520 050,,,
164175,Hotel Puerta de Bilbao,Rio Castaños,2 - Avenida de la Ribera,Barakaldo,48903,210,43.287499,-2.998635,0,,,+34 94 418 47 00,,,
164173,Hotel Ametlla Mar,Cala Bon Capó,s/n,L'Ametlla de Mar,43860,210,40.875465,0.793078,0,,,+34 977 457 791,,,
164172,Hotel Cuatro Postes,Carretera de Salamanca,Ávila,,5002,210,40.662168,-4.711765,0,,,+34 920 22 00 00 ,,,
164170,Hotel Bristol Benidorm,Plaza Doctor Fleming,Benidorm,,3501,210,38.537837,-0.12865,0,,,+34 965 851 448,,,
164168,Fuengirola Supercharger,Higueron Hotel Malaga Avenida del Higueron 48,Malaga,,29640,210,36.580783,-4.595893,0,,,,,,
164166,Centro Comercial el Saler,Av. del Profesor Lopez Pinero,Valencia,,46013,210,39.453745,-0.354222,0,,, +34 963 95 7012,,,
164164,Hotel Izan Puerta de Gredos,Carretera de los Llanos,s/n,Ávila,5600,210,40.339884,-5.52046,0,,,+34 920 34 51 71,,,
164161,Hacienda Zorita Wine Hotel,Crta.salamanca-Ledesma,Km.12,Valverdon,37115,210,41.040595,-5.757905,0,,,+34 923 129 400,,,
164160,Centro Comercial Artea,Barrio Peruri,33,Leioa,48940,210,43.342139,-2.990694,0,,,+34 944 912 706,,,
164152,Lleida Supercharger,S N la Variant,Torrefarera,,25123,210,41.663959,0.605371,0,,,,,,
164148,Almuñécar Playa Spa Hotel,Avenida Mar de Plata,s/n,Almuñécar,18690,210,36.732207,-3.69735,0,,,+34 958 639 450,,,
164147,Centro Comercial l'Aljub,Carrer Jacarilla,7,Elche,3205,210,38.262308,-0.721015,0,,,+34 965 43 00 90,,,
164145,Hotel-Restaurante Arcos de Quejana,Ctra. Beotegui,S/N,Quejana,1477,210,43.080528,-3.072545,0,,,+34 945 399 320,,,
164144,Hotel World Resort,Carretera Nacional N-340,p.k. 215.6,Benalmádena Costa,29630,210,36.57684,-4.583589,0,,,+34 902 75 04 01,,,
164141,Parador de Plasencia,S/N Plaza San Vicente Ferrer,Plasencia,,10600,210,40.029114,-6.093801,0,,,+34 927 425 870,,,
164140,Hotel Mas Mariassa,Carretera Santa Marina T-311,Km 30,Pratdip,43320,210,41.045968,0.857343,0,,,+34 977262601,,,
164137,Hotel la Fuente de la Higuera,Partido de los Frontones,s/n,Ronda,29400,210,36.786686,-5.166013,0,,,+34 952 165 608,,,
164132,Celler Can Torrens,Celler Can Torrens,,,8105,210,41.513255,2.233708,0,,, +34 935 707 666,,,
164130,B&B Hotel Valencia Aeropuerto,Ciutat de Lliria,4,Paterna,46980,210,39.512345,-0.453746,0,,,+34 961 344 640,,,
164129,Mónnatura Pirineus,Calle Unic,S/N,Son,25589,210,42.618163,1.080852,0,,,+34 973 62 67 22,,,
164127,B&B Hotel Albacete,Av. Escritor Rodrigo Rubio,11,Albacete,2006,210,39.007843,-1.88328,0,,,+34 967 242 807,,,
164126,Can Bonastre Wine Resort,Finca Can Bonastre Santa Magdalena,s/n,Masquefa,8783,210,41.50907,1.788685,0,,,+34 937 728 767,,,
164124,Senator Granada Spa Hotel,Paseo Violon,s/n,Granada,18006,210,37.165901,-3.600441,0,,,+34 958 131 000,,,
164123,Bembibre Supercharger,1 Camino Real,Bembibre,,24318,210,42.623488,-6.453124,0,,,,,,
164121,Centro Comercial Thader,Av. Juan de Borbon,s/n,Murcia,30110,210,38.032573,-1.148853,0,,,+34 968 856 880,,,
164119,Sh Villa Gadea,Partida Villa Gadea,s/n,Altea,3599,210,38.620606,-0.027147,0,,,+34 966 81 71 00,,,
164117,Hotel la Manga Club Principe Felipe,Hotel la Manga Club Principe Felipe,,,30389,210,37.604401,-0.802741,0,,,+34 968 17 50 00,,,
164113,Cullar Supercharger,KM58,Cullar,,18850,210,37.554018,-2.613742,0,,,,,,
164105,Hotel San Sebastian,Avenida Zumalacarregui,San Sebastian,,20008,210,43.314385,-2.00425,0,,,+34 943 316 250,,,
164102,Hotel Spa Relais & Chateaux A Quinta Da Auga,23B Paseo de Amaia,Santiago de Compostela,,15706,210,42.870401,-8.582262,0,,,+34 981 534 636,,,
164099,Hotel Spa Terraza,Avgda. de Rhode,32,Roses,17480,210,42.265609,3.167589,0,,,+34 972 256 154,,,
164093,Centro Comercial Islazul,Calle Calderilla,1,Madrid,28054,210,40.363669,-3.739337,0,,,+34 915 11 46 80,,,
164092,Centro Comercial Sexta Avenida,Avenida de la Victoria,2,Madrid,28023,210,40.467567,-3.81407,0,,,+34 91 372 80 34,,,
164087,Centro Comercial el Mirador de Jinamar,Autovia GC-1,Km 5,Las Palmas de Gran Canaria,35220,210,28.032928,-15.403263,0,,,+34 928 686 940,,,
164086,Centro Comercial Monteclaro,Av. de Monteclaro,Madrid,,28223,210,40.442883,-3.845569,0,,,+34 917 15 67 00,,,
164082,Mérida Supercharger,7 Polã­gono Industrial el Prado,Calle las Palmas,Mérida,,210,38.922231,-6.375038,0,,,,,,
164080,Parking&apartosuites Jardines de Sabatini,Cuesta de San Vicente,14-16,Madrid,28008,210,40.421088,-3.71479,0,,,+34 915 425 900,,,
164077,Hotel Cimbel,Avenida Europa,BENIDORM,,3503,210,38.536044,-0.120739,0,,,+34 965 85 21 00,,,
164074,Hotel Hospederia de Leyre,Montasterio de Leyre,Yesa,,31410,210,42.635954,-1.171478,0,,,+34 948 88 41 00,,,
164072,Palacio Infante Don Juan Manuel Hotel Spa,Calle Infante Don Juan Manuel,2,Belmonte,16640,210,39.560724,-2.702476,0,,,+34 967  170 784,,,
164066,Casa Rural Costa Caion,Campo Da Costa,1,Caion,15145,210,43.309212,-8.615173,0,,,+34 636 500 291,,,
164056,Centro Comercial Sevilla Factory,Ctra Nacional Iv Madrid-Cadiz,Km. 553.8,Dos Hermanas,41703,210,37.288794,-5.94185,0,,,+34 954 727 772,,,
164055,Hotel Barceló Sevilla Renacimiento,Av. Ãlvaro Alonso Barba,Sevilla,,41092,210,37.410084,-5.995848,0,,,+34 954 462 222,,,
164050,Centro Comercial Espacio Torrelodones,Av. de la Fontanilla,1,Torrelodones,28250,210,40.569583,-3.920729,0,,,+34 918 54 41 95,,,
164039,Los Naranjos Campo de Golf,Los Naranjos Campo de Golf,,,29660,210,36.509707,-4.979749,0,,,+34 952 81 24 28,,,
164033,Hotel Palacio de Luces Relais & Chateaux,Carretera As-257 S/N,Luces-Lastres,,33328,210,43.515936,-5.288861,0,,,+34 985 85 00 80,,,
164030,Hotel Nabia,Carretera Santuario de Chilla,Km. 6 apartado correos n 154,Candeleda,5480,210,40.180326,-5.287387,0,,,+34 920 38 23 07,,,
164029,Ariza Supercharger,Carretera de Madrid 0197,Ariza,,,210,41.313192,-2.002201,0,,,,,,
164026,Club Nautico Moraira,Puerto de Moraira,s/n,Moraira,3724,210,38.687277,0.137069,0,,,+34 965 744 461,,,
164024,Centro Comercial Moraleja Green,Av. de Europa,13-15,Alcobendas,28108,210,40.519275,-3.656531,0,,,+34 916 61 01 17,,,
164019,Villa Magalean Hotel & Spa,Nafarroa-Behera Kalea,Hondarribia,,20009,210,43.362397,-1.78918,0,,, +34 943 569 130,,,
164013,Las Casas de Ea Astei,Barrio Olagorta,Bizkaia,,48287,210,43.36846,-2.615046,0,,, +34 619 56 01 23,,,
164012,Sercotel Gran Hotel Zurbaran,Calle Gomez de Solis,Badajoz,,6001,210,38.87917,-6.976956,0,,,+34 924 001 400,,,
164008,Granada Supercharger,Hotel Paraiso de Granada Moraleda de Zafayona,Granada,,18370,210,37.181746,-3.928561,0,,,,,,
164007,Aparcamiento - Insur,Avenida Diego Martínez Barrios,10,Sevilla,41013,210,37.374044,-5.977101,0,,,+34 627 95 43 88,,,
164006,Resguard Dels Vents,Hotel Resguard Dels Vents,Ribes de Freser,Girona,17534,210,42.314731610831444,2.171160378396735,0,,,+34 972 72 88 66,,,
164003,Centro Comercial Gran Via de Vigo,Calle Miradoiro,2,Vigo,36210,210,42.220889,-8.724445,0,,,+34 986 447 500,,,
164001,Aparcamiento Buenos Aires - Insur,Aparcamiento Buenos Aires,,,41013,210,37.378084,-6.000599,0,,,+34 653 51 04 93,,,
163997,Rafael Hoteles Atocha,Calle Mendez Alvaro,30,Madrid,28045,210,40.401365,-3.687091,0,,,+34 914 688 100,,,
163995,Sercotel Portales,Calle Portales,Logrono,La Rioja,26001,210,42.466184,-2.450468,0,,,+34 941 50 27 94 ,,,
163990,Hotel Senator Barajas,Calle Galeon,27,Madrid,28042,210,40.45869,-3.582419,0,,,+34 902 533 532,,,
163986,Hotel Vincci Maritimo,Carrer de Llull,340,Barcelona,8019,210,41.408258,2.21174,0,,,+34 933 562 600,,,
163985,Aparcamiento Cartuja - Insur,Calle Louis Braille,s/n,Sevilla,41092,210,37.404967,-6.00574,0,,,+34 653 51 04 94,,,
163984,Senator Marbella Spa Hotel,Av. Bulevar Príncipe Alfonso de Hohenloh,97,Marbella,29600,210,36.509731,-4.903906,0,,,+34 952 764 080,,,
163983,Hotel Barceló Montecastillo Golf & Sports Resort,Av. de Montecastillo,Jerez de la Frontera,,11406,210,36.70202,-6.037729,0,,,+34 956 15 12 00,,,
163982,Hotel-Restaurante Mas de la Sala,Ctra. C-16,Sallent,Barcelona,8650,210,41.789417,1.897806,0,,,+34 938 370 877,,,
163979,Gran Hotel Guadalpin Banus,Calle Edgar Neville,s/n,Puerto Banus,29660,210,36.483151,-4.966371,0,,,+34 952 899 700,,,
163978,Hotel Izan Trujillo,Plaza del Campillo 1,Trujillo,,10200,210,39.458891,-5.87761,0,,,+34 927 45 89 00,,,
163972,Casona de Labrada,6 Labrada,A Pontenova,,27728,210,43.34095,-7.15912,0,,,+34 696 927 333,,,
163971,Swiss Hotel Moraira,Calle Haya,175,Moraira,3724,210,38.692952,0.109829,0,,,+34 965 747 104,,,
163970,Rafaelhoteles Madrid Norte,Avenida de Barajas,22,Alcobendas,28108,210,40.534692,-3.621364,0,,,+34 911 842 500,,,
163966,Hotel Catalonia Diagonal Centro,Carrer de Balmes,Barcelona,,8008,210,41.393861,2.156727,0,,, +34 934 159 090,,,
163962,Reul Alto Cortijos Rurales,Calle Reul Alto,Laroya,AlmerÌa,4868,210,37.285132,-2.347606,0,,,+34 658 95 28 31,,,
163956,Hotel Mercure Algeciras,Calle Malta,Algeciras,Cádiz,11204,210,36.142892,-5.448502,0,,,+34 956 63 97 48,,,
163955,B&B Hotel Figueres,Avinguda de Roses,s/n,Figueres,17600,210,42.266522,2.998114,0,,,+34 972 501 587,,,
163953,Centro Comercial Abc Serrano,Calle de Serrano,61,Madrid,28006,210,40.432498,-3.68678,0,,,+34 91 577 50 31,,,
163951,Centro Comercial Arturo Soria Plaza,Calle Arturo Soria,126,Madrid,28043,210,40.450133,-3.651345,0,,,+34 917 599 718,,,
163950,Hotel Crowne Plaza Barcelona,Avda Rius I Taulet 1-3,Barcelona,,8004,210,41.372697,2.154707,0,,,+34 93 426 22 23,,,
163947,Assaona Gastrobeach Club Mallorca,Paseo de Portixol,Palma,,7006,210,39.56098,2.66671,0,,, +34 971 359 633,,,
163942,Hotel Val de Neu,Carrer de Perimetrau,Baqueira,,25598,210,42.695544,0.936264,0,,,+34 973 63 50 00,,,
163941,Hotel Yoy Villa de Sallent,Av. de los Pirineos,s/n,Formigal,22640,210,42.775294,-0.361528,0,,,+34 974 49 02 23,,,
163939,Hotel AC Baqueira Ski Resort,Avenida Perimetral,Baqueira,,25598,210,42.696623,0.935527,0,,,+34 973 645 961,,,
163937,Hotel Ibis Styles Pamplona Noain,Calle Real,Noain,,31110,210,42.764893,-1.633657,0,,, +34 948 31 66 10,,,
163934,Hotel Izan Cavanna,Plaza Cavanna,La Manga,,30380,210,37.656651,-0.721531,0,,,+34 968 563 600 ,,,
163928,Hotel Masia Urbisol & Spa,N-141C,Km 20,Calders,8275,210,41.802357,2.021021,0,,,+34 93 830 91 53 ,,,
163926,Centro Comercial Tresaguas,Avda. de América,Alcorcon,,28922,210,40.358225,-3.832359,0,,,+34 917 615 924,,,
163921,Restaurante Via de la Plata,Restaurante Via de la Plata,,,6800,210,38.921009,-6.375688,0,,,+34 6911 48 953,,,
163915,Autotalleres Vicente,Calle de Dolores Marques,Valencia,,46020,210,39.488258,-0.361924,0,,,+34 652 437 541,,,
163914,My Car Wash Madrid Canillas,Calle de Canillas,26,Madrid,28002,210,40.441895,-3.674985,0,,,+34 658315403,,,
163912,Hotel VP Plaza España Design,Plaza España,5,Madrid,28000,210,40.422713,-3.711732,0,,,+34 91 595 55 10,,,
163911,Hotel O Camiño,Hotel O Camiño,,,32300,210,42.426223,-6.98854,0,,,+34 988 32 26 86,,,
163894,Casas Rurales el Viejo Establo,Paraje la Matanza,68,Fortuna (Murcia),30628,210,38.14407,-1.072401,0,,,+34 670345326,,,
163890,Sh Valencia Palace,Passeig de l'Albereda,Valencia,,46023,210,39.467556,-0.360013,0,,,+34 963 37 50 37,,,
163889,B&B Hotel Mollet,Avenida Rabassaires,46,Mollet del Valles,8100,210,41.541727,2.222785,0,,,+34 935 796 261,,,
163886,Centro Comercial Arenas de Barcelona,Gran Via de les Corts Catalanes,373-385,Barcelona,8015,210,41.376469,2.150236,0,,,+34 932 890 244,,,
163883,Centro Comercial Berceo,Calle Lerida,Logrono,,26006,210,42.462715,-2.420533,0,,, + 3494125830,,,
163880,Hotel W Barcelona / Parking Novabocana,Plaça de la Rosa Dels Vents,Barcelona,,8039,210,41.368544,2.188275,0,,, +34 93 295 28 00,,,
163876,Gran Hotel Don Manuel Caceres,Calle San Justo,Caceres,,10003,210,39.477644,-6.371765,0,,,+34 927 24 25 24,,,
163872,El Corte Ingles Centro Comercial Pozuelo,El Corte Ingles Centro Comercial Pozuelo,,,28224,210,40.462721,-3.806132,0,,,+34 917 08 92 00,,,
163871,Bonasport Club Esportiu,Calle Vista Bella,Barcelona,,8022,210,41.411186,2.129539,0,,,+34 932 54 15 00,,,
163867,Supermercados Costablanca,Camí de la Mar,Alicante,,3580,210,38.579178,-0.093634,0,,, +34 965 88 8508,,,
163858,Jerez Supercharger,Ronda Aurora Boreal,Cadiz,,11408,210,36.692378,-6.160246,0,,,,,,
163852,Tordesillas Supercharger,KM 147 Ctra. Burgos Salamanca,Tordesillas,,47100,210,41.515993,-4.943107,0,,,,,,
163841,Sha Wellness Clinic,Calle Verderol,Albir,,3581,210,38.559818,-0.07438,0,,, +34 966 811 199,,,
163837,Getafe Supercharger,23 Av. Ada Lovelace Getafe,Getafe,,28906,210,40.29037,-3.69629,0,,,,,,
163836,Hotel Villa Soro,61 Avenida Ategorrieta,Donostia,,20013,210,43.322039,-1.963838,0,,,+34 943 297 970,,,
163833,Hotel Chalet Val de Ruda,Baqueira Beret - Edif.val de Ruda,Naut Aran,,25598,210,42.699976,0.931197,0,,,+34 973 645 258,,,
163829,Hotel Casona de la Paca,El Pito,s/n,Cudillero,33150,210,43.554327,-6.144235,0,,,+34 985 591 303,,,
163827,Aguadulce Supercharger,Av. Aguadulce,Aguadulce,,41550,210,37.256691,-4.986075,0,,,,,,
163825,Ibis Barcelona Cornellá,Carrer Albert Einstein,53,Cornella de Llobregat,8940,210,41.348666,2.081894,0,,,+34 934 751 777,,,
163818,Altafulla Mar Hotel,Via Augusta,13-21,Altafulla,43893,210,41.135535,1.377477,0,,,+34 976 511 55,,,
163815,Centro Comercial Intu Asturias,Autovia A66,Km 4.5,Paredes El Cuetu,33429,210,43.3900702,-5.8050691,0,,,+34 985 266 856,,,
163810,Marjal Guardamar Camping & Resort,Marjal Guardamar Camping & Resort,,,3140,210,38.108849,-0.656044,0,,, +34 965 48 49 45,,,
163806,Veritas,Av Josep Verges I Mata,Palafrugell,,17200,210,41.912141,3.169558,0,,, +34 972 30 61 27,,,
163805,Monte Holiday Ecoturismo,Finca el Tercio Nuevo,,Gargantilla del Lozoya,Madrid,210,40.949537,-3.729742,0,,, +34 918 695 278,,,
163798,Hemingway Casa Rural Kanala,Kanala,Kanala,Vizcaya,48314,210,43.38577,-2.678814,0,,, +34 618774398,,,
163796,Museo Automovilistico de Malaga Y Coleccion del Muse,15 Av de Sor Teresa Prat,Malaga,,29003,210,36.70023,-4.439113,0,,,+34 951 137 001,,,
163792,Real Sociedad Hipica Española Club de Campo,Carr. de Burgos,Km 26.400,San Sebastián de los Reyes,28709,210,40.607861,-3.590686,0,,,+34 916 571 018,,,
163785,Centro Comercial el Rosal,Avedidad de la Constitución,2,Ponferrada,24404,210,42.555696,-6.603139,0,,,+34 987 406 750,,,
163780,Parador de Lorca,Calle del Castillo,s/n,Lorca,30800,210,37.677944,-1.704149,0,,,+34 968 406 047,,,
163769,Avenida del Hospital,Avenida del Hospital,Fuenlabrada,Community of Madrid,28942,210,40.28859874497998,-3.819161864644718,0,,,,,,
163701,Easycharger Villagordo del cabriel (Dir.Madrid),Galp,Villargordo del Cabriel,Valencian Community,,210,39.52915705440614,-1.4333520522936851,0,,,,,,
163411,Torremirona Relais Hotel Golf and Spa Resort,Ctra. N-260 KM 46,Navata,,17744,210,42.233947,2.86615,0,,,+34 972 566 700,,,
163288,Calle de las Eras,Calle de las Eras,Yuncos,Castile-La Mancha,45210,210,40.08788495158146,-3.8759683806697467,0,,,,,,
163276,Iberdrola Ibi,"Ball del Virrey, 10",Ibi,Alicante,,210,38.618979084974654,-0.5850140726979589,0,,,,,,
163273,PDR Cimalsa,Carrer del Solsonès,Barcelona,Barcelona,08211,210,41.599000216523734,2.090149136689206,0,,,,,,
163145,Armaria Pato,Calle Las Palmeras,San Roque,Andalusia,11310,210,36.30033727926575,-5.270584902503401,0,,,,,,
163098,EdRR Pinyana - Osca (N240) PIRVEC-34,"Av. Pinyana, 13",Lleida,Lleida,25196,210,41.626605815363746,0.610442768724397,0,,Se activa con app evcharge,,,,
163041,E. S. El Paso (La Cala de Mijas),Aenida Mare Nostrum s/n,Mijas,Malaga,,210,36.50937797919828,-4.6875311520261675,0,,,,,La cala de Mijas,
162682,Calle de Orense,Calle de Orense,El Casar,Castile-La Mancha,19170,210,40.70413072154844,-3.442565715060823,0,,,,,,
162661,Hotel Palacio de los Velada,Plaza de la Catedral 10,Avila,CA,05001,210,40.656324,-4.698138,0,,,+34 920 255 100,,,
162639,Centeo Comercial Rivas H2O,"C.C. H2O - Calle Marie Curie, 4",Rivas-Vaciamadrid,Community of Madrid,28521,210,40.33693899121607,-3.5265617305013848,0,https://www.h2occ.com/,"En el parking subterráneo, en las plazas de color amarillo, estan señalizadas con un cartel luminoso como ""plazas para enchufados""",914 99 47 97,,,
162638,Iberdrola Charging Station Toral de los Vados,"Plaza Industria Toral-, 58",Toral de los Vados,Castilla y León,24560,210,42.544061962421694,-6.782245902681552,0,,,,,,
162611,Calle Juan de Mena,Calle Juan de Mena,Madrid,Community of Madrid,28014,210,40.41721588706844,-3.6902837846747616,0,,,,,,
162608,Gasolwin Aldaia,Carretera Aldaia-Xirivella,Aldaia,Valencia,,210,39.4642512126228,-0.44111360955184864,0,,,,,,
162607,Avenida Miguel de Hernández ,Avenida Miguel de Hernández,Aldaia,Valencia,,210,39.47040615215053,-0.46358447980367146,0,,,,,,
162604,Hipercor,"Calle Vial Flora España, 03016 Alicante, España",Alicante/Alacant,Valencian Community,03016,210,38.3688900899908,-0.44578265723976074,0,,,,,,
162573,Calle de Bodegas Megia,Calle de Bodegas Megia,Valdepeñas,Castile-La Mancha,13300,210,38.78257541798325,-3.3901702083810505,0,,,,,,
162434,Policía Local Mislata,Avenida Buenos Aires 3,Mislata,Valencia,,210,39.4785034079388,-0.41559650668637005,0,,,,,,
162431,Gasolwin Aldaia,Calle Riu Xuquer 58,Aldaia,Valencia,,210,39.464373548676605,-0.4410663406299591,0,,,,,,
162430,Avenida Miguel Hernández,Avenida Miguel Hernández 35,Aldaia,Valencia,,210,39.470392773670994,-0.46352976454340933,0,,,,,,
162417,Aranda de Duero Supercharger,N-I,Km 152,Aranda de Duero,,210,41.623235,-3.687739,0,,,,,,
162406,Complejo Leo,Venta el Culebrín 1,Monesterio,Badajoz,06260,210,38.02842718396906,-6.22007390079591,0,https://www.iberdrola.es/movilidad-electrica/recarga-fuera-de-casa,,900929293,SmartMobility@iberdrola.es,"A-66, Km.730",
162405,E.S. Oropesa - Saras,"C-5105, 1",Oropesa,Toledo,45560,210,39.92641326536821,-5.185378454902548,0,https://www.iberdrola.es/movilidad-electrica/recarga-fuera-de-casa,,900929293,SmartMobility@iberdrola.es,,
162402,Asivalco,Gijon 3,Paterna,Valencia,,210,39.5136729103437,-0.4602344004011911,0,,,,,Poligono Industrial Fuente del Jarro,
162396,Endesa X Gasexpress Teruel,"Ctra. San Julián, 85, 44003 Teruel",Teruel,Teruel,44003,210,40.33795220361361,-1.101108035490256,0,,,,,,
162394,Hotel Beatriz Spa,Concilios de Toledo 2,Toledo,Toledo,45005,210,39.878445652453934,-4.04078013346043,0,https://www.iberdrola.es/movilidad-electrica/recarga-fuera-de-casa,,900929293,SmartMobility@iberdrola.es,,
162339,IKEA Alcorcón,"Avenida del Ejército de Tierra, 1",Alcorcón,Community of Madrid,28922,210,40.34977989013365,-3.855928680412376,0,http://www.ikea.es,"Hay 38 puntos en el parking, sótano 1.  El resto están en el sótano 2.",,,Polígono industrial El Lucero,
162324,Gasolwin Náquera,"Calle Boreas, 1,",Náquera,Valencia,46119,210,39.60029122875642,-0.39856046470572437,0,,,,,,
162321,AN Energéticos,"Pol industrial La Nava, Calle E",Olite,Navarra,31390,210,42.49408195843802,-1.6653101030033213,0,,,,,,
162314,"E.S. Petronor, Alfarras",Avinguda de Lleida 75,Alfarras,Lleida,25120,210,41.8242123913123,0.5690996120754335,0,,,,,,
162296,EDRR Sant Carles de la Rapita,Avinguda dels Alfacs,Sant Carles de la Ràpita,Catalonia,43540,210,40.6174429040197,0.5940283996756079,0,,,,,,
162285,Port de les cases d'alcanar,Passeig Marítim,Alcanar,Tarragona,43530,210,40.55244438791223,0.5307716803474705,0,,,,,,
162284,ES Aralar,Berrioplano,Berrioplano,Navarra,31195,210,42.84331351721383,-1.681413076806166,0,,,,,,
162160,Camprodon,Plaça de la Vila,Camprodon,Girona,17867,210,42.311560663061755,2.3649062292698773,0,https://www.camprodon.cat/,"Important, although there are two sockets available, only one must be used at the same time, or else the station shuts off and manual power up by local officials will be required. RFID required, plug and charge. Cables needed",+34972 740 005,,,
162062,75 avila aranjuez,75 avila aranjuez,Aranjuez,Community of Madrid,28300,210,40.05761657678876,-3.5920458671714655,0,,,,,,
162061,Calle de Ávila,Calle de Ávila,Community of Madrid,Community of Madrid,28300,210,40.057608555928184,-3.5920283748167776,0,,,,,La Montaña,
162060,Urteaga kalea,ES Avia,,País Vasco,20570,210,43.10806874162219,-2.4063523522960395,0,,Punto de carga trío de EDP en ES Avia de Bergara,,,Aranerreka,
162028,Porsche DC City Charging,"Paseo de la Castellana, 100",Madrid,Madrid,28046,210,40.44275588480008,-3.6913544030869616,0,,,,,"Parking Saba, P-1, Pl. 95 & 94",
161963,aldi cunit,Avinguda de Barcelona,Cunit,Catalonia,43881,210,41.19601872792592,1.6212023543491796,0,,,,,,
161885,San Fulgencio,Mar Tirreno 5,San Fulgencio,Alicante,,210,38.117513337076275,-0.6570978206913196,0,,,,,,
161502,Carretera de Hospitalet-Mora,Carretera de Hospitalet-Mora,Vandellòs i l'Hospitalet de l'Infant,Catalonia,43892,210,41.00887274884019,0.9132926649962201,0,,app electronaps o llavero,,,,
161448,PDRR granja soldevila,passatge de Mas Granollacs,Barcelona,Barcelona,08130,210,41.5271180292782,2.1852109100439066,0,,,,,,
161447,PDR polinya,Carretera de Mollet a Sentmenat,Polinyà,Barcelona,08213,210,41.554794401275785,2.158692976628913,0,,,,,,
161446,TSHI charger,Carrer de Santiago Rusinyol,Polinyà,Barcelona,08213,210,41.54507113430964,2.161561026196523,0,,Se usa con llavero y app electromaps,633518585,elopez@tshi.eu,,
161315,Hacienda Mendoza,Calle Colada de Substancias,Archidona,,29315,210,37.125982,-4.29612,0,,,,,,
161313,Hotel Melia Benidorm,Avenida Doctor Severo Ochoa 1,Benidorm,,03503,210,38.540756,-0.105172,0,,,+34 966 813 710,,,
161278,Zafiro Palace Alcudia,Carrer del Camí Real Al Moll 2,Port d'Alcúdia,,07400,210,39.844614,3.134509,0,,,+34 971 897 696,,,
161203,CC Bassa el Moro,Guirnei 8,Petrer,Alicante,,210,38.490186400627294,-0.7783543393795753,0,,,,,,
161202,Restaurante Jiménez,Zaragoza 20,Campanas,Navarra,31397,210,42.68861137117264,-1.6516206630687975,0,,,,,,
161187,E.S. Mides,"Carretera Valencia-Alacant, 0 Km 264 892, 46430 Sollana",Sollana,Valencia,46430,210,39.27370646823968,-0.3748573397720065,0,,,,,,
161185,Ocine,Canal de Tauste 3,Tudela,Navarra,,210,42.04079498131253,-1.5894632236312418,0,,,,,,
161184,E.S. Bardenas,Polígono industrial La Serna,Tudela,Navarra,,210,42.076247575527475,-1.6427705872404204,0,,,,,Calle B,
161183,E.S. Valcarce,"Polígono 24, 61",Tudela,Navarra,,210,42.121369254793876,-1.6746961707033279,0,,,,,,
161182,Restaurante Jiménez,Avenida de Zaragoza 20,Tiebas,Navarra,,210,42.6886645207658,-1.6516019079198259,0,,,,,,
161181,E.S. Andamur,Avenida del Este 1,Noáin,Navarra,31119,210,42.73241511907031,-1.6132515750064158,0,,,,,,
161170,Aqua Hotel Onabrava & Spa,Carrer del Pla de la Torre,Santa Susanna,Barcelona,08398,210,41.63207332212099,2.717231566421333,0,https://www.aquahotel.com/hoteles/onabrava-spa/,"41°37'55.7""N 2°43'02.1""E",93.767.83.70,onabrava@aquahotel.com,,
161169,Mercadona Leganés,"Calle de Ramón y Cajal, 27",Leganés,Comunidad de Madrid,28914,210,40.33198889360028,-3.7361152245470066,0,,P -1,,,,
161165,Ayuntamiento Las Rozas - El Cantizal,Calle Kálamos,Las Rozas,Comunidad de Madrid,28232,210,40.51923504135053,-3.9341275021151887,0,,,,,Parking del Ayuntamiento,
157972,Hotel Pax - Torrelodones,Sama de Langreo 1,Torrelodones,Madrid,28250,210,40.57128860707675,-3.926065035564079,0,https://www.iberdrola.es/movilidad-electrica/recarga-fuera-de-casa,,900929293,SmartMobility@iberdrola.es,,
157971,Carrer de Lluís de Santàngel,Carrer de Lluís de Santàngel,Valencia,Valencia,46005,210,39.462036946695335,-0.36700205838269695,0,,,,,l'Eixample,
157961,Iberdrola Ondara,Avinguda d'Alacant 85,Ondara,Alicante,03760,210,38.82214396393704,0.02213400775053742,0,,,,,,
157960,Barruera,Passeig de Sant Feliu 43,Barruera,Lérida,25527,210,42.50434259875766,0.8007627315022319,0,,,,,Carrer Major,
157896,Calle Orfeón Fernández Caballero,Calle Orfeón Fernández Caballero,Región de Murcia,Región de Murcia,30890,210,37.563505,-1.807623,0,,,,,Las Casicas,
157894,Ronda de Santa Eulàlia,Ronda de Santa Eulàlia,Pallejà,Barcelona,08780,210,41.42014241001891,2.001890589933055,0,,,,,,
157875,E.S. GHC - Albacete,Federico García Lorca 1,Albacete,Albacete,02001,210,39.00101951973525,-1.8495477320295777,0,https://www.iberdrola.es/movilidad-electrica/recarga-fuera-de-casa,Gasolinera junto a estación ADIF,900929293,SmartMobility@iberdrola.es,,
157802,Miranda de Ebro ,Jerea 1,Miranda de Ebro,Burgos,09200,210,42.694570086502324,-2.953935659335457,0,,,,,Parking C.C. E. Leclerc,
157801,Ionity Puerto Lumbreras,Estacion de Servicio Cepsa. Autovía del Mediterráneo Km 580,Puerto Lumbreras,Murcia,30890,210,37.57568867460708,-1.8008518785441083,0,,,,,,
157797,Denia - Moll de la Pansa,"Moll de la Pansa, 0 (Parking)",Denia,Alicante,03700,210,38.84562665796264,0.11462169591959537,0,,,,,,
157796,La pobla de Mafumet,Avinguda de la Generalitat 22,La Pobla de Mafumet,Tarragona,43140,210,41.186842,1.208789,0,,,,,,
157795,E.S. Repsol Alovera,Autovía A2 Km. 45.6,Alovera,Guadalajara,19208,210,40.57965693574346,-3.2357713499955025,0,,,,,,
157790,Iberdrola (Restaurante Essentia),Avenida Adolfo Suárez 30,Tarancon,Cuenca,16400,210,40.00624705928743,-3.018828219095326,0,,,,,,
157781,Restaurante Benavarre,Calle Afueras 28,Benavarre,Huesca,22580,210,42.10119968354391,0.48553546482617094,0,,,,,,
157774,Carrretera Granera,Garatge 4,Castellterçol,,08183,210,41.749879868277816,2.1226555798707523,0,,,,,,
157749,Carrer de Pau Casals,Carrer de Pau Casals,Castellterçol,Catalonia,08183,210,41.74979968924583,2.122481899347349,0,,,,,,
157719,Carrer Barcelona 62-64,Carrer Barcelona 62-64,Castellterçol,Catalonia,08183,210,41.74636761807827,2.115200922810345,0,,,,,,
157667,Finestrat,Carrer Astúries,Finestrat,Alicante,03509,210,38.5364767167068,-0.17946302815903437,0,,,,,,
157666,"Avenida de Oviedo, Solares","Avenida de Oviedo, 2",Solares,Cantabria,39710,210,43.38347816243905,-3.738187539253431,0,,,,,,
157665,"Carrer de Vidal de Montpalau,  Cervera",Carrer de Vidal de Montpalau,Cervera,Lérida,25200,210,41.67393396505145,1.2744478350575719,0,,,,,,
156833,Calle del General Sanmartín,Calle del General Sanmartín,València,Valencian Community,46004,210,39.465463027070285,-0.376141555027516,0,,,,,,
156816,E.S. Cepsa Sigüeiro,N-550 Km 49.5,Sigüeiro,A Coruña,15884,210,42.96415464595697,-8.450153079225515,0,,,,,,
156815,E.S. Petromiralles Tarrega,Avinguda de la Canaleta,Tarrega,Lleida,25300,210,41.66282191343356,1.133278794070975,0,,,,,Torre del Morlans,
156665,Calle Antequera 79,Calle Antequera,Torre del Campo,Andalusia,23640,210,37.77122847675585,-3.9055976131057832,0,,,,,,
156313,Carrer del Doctor Rovira,Carrer del Doctor Rovira,Sant Feliu de Guíxols,Catalonia,172220,210,41.78076010896524,3.0219945896944864,0,,,,,,
156060,Plaza San Francisco,"Avenida. del Alcalde Miguel Castaño, 1",Leon,Leon,24004,210,42.59397240670228,-5.57034943202882,0,http://www.leonecocity.es,"female socket,   https://www.electromaps.com/mapa/p/62267",606 67 61 65,info@leonecocity.es,,
156059,Leon Ecocity San Agustin,calle San Agustín,Leon,leon,24001,210,42.598956,-5.574422,0,https://www.leonecocity.es/,,606 67 61 65,info@leonecocity.es,,
155740,Apartamentos Maier,Calle Virgen de la Palma,Cádiz,Bahía de Cádiz,11002,210,36.52940759711356,-6.301815078517279,0,https://www.apartamentosmaier.com/,"THE REAL STREET NAME IS :SAN NICOLAS 4-7, 11002 CADIZ, SPAIN",+34689250526,apartamentosmaier@gmail.com,,
155705,Apartamentos Maier,Calle Virgen de la Palma,Cádiz,Bahía de Cádiz,11002,210,36.52944275426722,-6.301811353403764,0,https://www.apartamentosmaier.com,Hotel Apartments,639994561,apartamentosmaier@gmail.com,"Apartamentos Maier, San Nicolas 4",+34696139099
155656,Autovía del Mediterráneo,Autovía del Mediterráneo,Almeria,Andalusia,04130,210,36.87557169671612,-2.338144606380297,0,,,,,,
155655,E.S.CEPSA ,costa del andarax,Huércal de Almería,Andalusia,04230,210,36.899052864128734,-2.445110900825739,0,,,,,,
155630,Hotel Felix,"Carretera N-240 , 17 ",Valls,Tarragona,43800,210,41.26704936860142,1.2483894592484148,0,,,,,,
155628,Hotel Restaurante El Cañuelo,Carretera N-331 km 60,Monturque,Cordoba,14930,210,37.47615721111667,-4.588962474628488,0,,,,,,
155621,Hotel Carmen,"Avenida Carlos III, 137",La Carlota,Cordoba,14100,210,37.6647679378532,-4.942646805639811,0,,,,,,
154848,E.S. Garcerán,Autovía A31. Murcia-Cartagena,Fuente Álamo,Región de Murcia,30332,210,37.767660712249395,-1.069632018303082,0,,,,,,
150453,EasyCharger - Hotel Meleiros,"Carr. nacional 525, km 84, 300",Zamora,Zamora,49396 Castro de Sanabria,210,42.06097924275369,-6.642557382472432,0,,,,,,
150335,Carrer de Vidal de Montpalau,Carrer de Vidal de Montpalau,Segarra,Segarra,25200,210,41.415475199999996,2.2052864,0,,,,,Mas del Camatxo,
150318,Mc Donalds calle Palillos,"C/ Palillos, s/n - | c/v C/ Requintos y Dulzaina - 47012 - Valladolid",Valladolid,Valladolid,,210,41.62928347161164,-4.7101130474515,0,,,,,,
150233,E. S. Andamur,"El Ventorro Kalea, 3",Durruma-San Román de San Millán,Araba,01207,210,42.86415037004397,-2.3205562668556468,0,,,,,,
150001,Hotel Albaida Nature,KM 24 Ctra. San Juan del Puerto-Matalascañas Mazagón,Mazagón,,21130,210,37.138274,-6.822008,0,,,+34 34959376029,,,
149974,Calle Manuel Sánchez,Calle Manuel Sánchez,Huelva,Andalusia,21006,210,37.2637265,-6.9366653,0,,,,,,
149926,E.S. Valcarce (Iberdrola),Avenida de Castilla y León,Arévalo,Castile and León,05200,210,41.078274771581306,-4.734323111122649,0,,,,,,
149925,Calle Duarte,Calle Duarte,Ceuta,Ceuta,51001,210,35.887190787505304,-5.305181786769026,0,,,,,Manzanera - Otero,
149923,Estación de Autobuses Albacete,Calle Federico García Lorca n6,Albacete,Albacete,,210,38.99882120342039,-1.8479176422871433,0,https://chargeandparking.es,Estación de Autobuses de Albacete. Cargar con APP Chargeandparking,,,Estación autobuses de Albacete,
149893,Mi Rinconcito (Wenea),N-532,Ourense,Ourense,32698,210,41.91114238065029,-7.442906424784724,0,,,,,Queizás,
149818,Tesla Supercharger Benavente,Calle Braganza,Benavente y Los Valles,Benavente y Los Valles,49600,210,42.0076721922119,-5.66331366312818,0,https://www.teslamotors.com/supercharger,"Centro de Transportes, Calle Simon Bolivar, Benavente, 49600, Spain.",,,Barrio Honduras,
149816,Hotel San Camilo," Calle Fuente Nueva, 10",Navarrete,La Rioja,26370,210,42.43433473094572,-2.567386611551683,0,https://hotelsancamilo.es/,,+34 941 44 1111,sancamilo@hotelsancamilo.es,,
149815,E.S. Palazuelo - AVIA,Carretera de Villaquejida a Cebrones del Río,El Páramo,El Páramo,,210,42.155847760134264,-5.641581296727168,0,,"Salida 194 A-66, Ctra. León 412, 24796 Villaquejida Grajal de la Rivera (León).
",+34984390064,,La Antigua,
149756,E.S. El Delfin Azul,Caretera Madrid-Cadiz (N-323a) Km. 295,Bailen,Jaen,23710,210,38.09374198545055,-3.768834063674035,0,,,,,,
149752,E.S. Ballenoil Talavera de la Reina,Vicente Lieva 33,Talavera de la Reina,Toledo,45600,210,39.961184613518896,-4.8439934660401605,0,,,,,,
149751,"Hospital Universitario y Politécnico de La Fe, Parking Sud",Parking Sud,Valencia,Comarca de València,46026,210,39.4426643572871,-0.3771701253320998,0,https://www.pavapark.com/,"En el aparcamiento subterráneo Sur del Hospital La Fe. Junto a caja central al final de todo al aparcamiento, en el sótano 1. 
0'05€ el minuto. La hora 2'65€. 5€ toda la noche.
Pedir que lo activen en caja central.",961 920 809,info@pavapark.com,Quatre Carreres,
149749,Exoil Pista de Silla - Wenea,"Camino de Castellar, Camí pont de pedra, 3",Valencia,Valencia,46910,210,39.42074339068259,-0.37369459398496474,0,http://www.wenea.com,,915 06 06 00,,,
149748,Parking Avenida del Oeste,"Avinguda de l'Oest, 34",Valencia,,46001,210,39.469629,-0.379647,0,http://www.pavapark.com/parkings/parking-avenida-del-oeste-valencia,"En el interior del parking subterráneo de la Avda. Baron de Carcer. Puedes acceder por la misma avenida o si vas en sentido contrario, por San Vicente, giras a la izquierda en la calle La sangre.
Aparcar y dirigirse a recepción para pedir la activación de los puntos. También se puede activar con la App Moviltik tanto los mennekes como el Trio.
Pavapark
",963106045,,,
149724,carrer de Marina,carrer de Marina,Montgat,Catalonia,08911,210,41.4641749351193,2.274080552951318,0,,,,,,
149655,Alcampo,Alcampo,Sant Quirze del Vallès,Catalonia,08192,210,41.52924555906176,2.0896550728155034,0,,,,,,
149478,Apartamentos Zarautz,Mandabide kalea,Zarautz,Guipúzcoa,20800,210,43.28663984121246,-2.168054429206677,0,https://apartamentoszarautz.com,,635715192,apartamentoszarautz@gmail.com,,
149390,Calle San Francisco,Calle San Francisco,Villares de la Reina,Castile and León,37184,210,41.00706259163874,-5.648292559268009,0,,,,,,
149388,Carretera d'Accés a la Costa Brava,Avinguda Parlament de Catalunya,Blanes,Catalonia,17300,210,41.68348859040023,2.792345787581894,0,,,,,,
149340,RESTAURANTE LA ZARZUELA (Wenea),"Carretera Extremadura N-v, KM 150, 45567 Lagartera, Toledo, España",Lagartera,Oropesa,45560,210,39.91266331557438,-5.202514830878272,0,https://www.wenea.com,"Operados por Wenea, es necesario descargarse la aplicacion",Wenea,,,915060600
149291,Mercadona Los Molinos Getafe,Avenida Sancho Panza s/n,Getafe,Madrid,2806,210,40.31769961744237,-3.7068955990271206,0,,,,,,
149246,Gavina Camping Village,"Avinguda de la Gavina, Platja Creixell N-340 Km. 1.181, ",Creixell,Tarragonés,43839,210,41.15760971942214,1.4413072972680538,0,https://www.campinggavina.com/,,+34 977 80 15 03,contact@campinggavina.com,,
149114,Carrer de Girona,Carrer de Girona,Vilobí d'Onyar,Selva,17185,210,41.88841778512287,2.744036235728231,0,,,,,Cal Ferrer Pagès,
148980,Calle Jacoba Díaz Benito,Calle Jacoba Díaz Benito,El Molar,Madrid,28710,210,40.73317998047381,-3.58364458868823,0,,,,,,
148866,Linares,Calle José Antonio Godoy del Moral,Linares,Andalusia,23700,210,38.09565963813155,-3.6050843232137586,0,,,,,,
148804,Ayuntamiento Mislata,Calle Jose Pomer,Mislata,Valencia,,210,39.47537241955672,-0.4181876833115439,0,,"In the center of the town, some times the street is closed by de school, but is only for 20 minuts",,,,
148751,+B Energias Xativa,"Calle Proyecto Mola 3, 6",Xativa,Valencia,46800,210,38.99727087783501,-0.5124996679268179,0,,,,,,
148677,Calle San Isidro,Calle San Isidro,El Molar,Madrid,28710,210,40.737952694214414,-3.581327789092711,0,,,,,La Cabaña,
148607,Hotel El Azafrán [Cargacoches],Polígono El Gancho Km 176,Caminreal,Teruel,44350 ,210,40.83755896326201,-1.3081470477814037,0,http://www.cargacoches.com/,App chargeandparking android and iOS,914047905,info@cargacoches.com,N-211,
148572,Calle Carretera de Granada,Calle Carretera de Granada,Alto Guadalentín,Alto Guadalentín,30817,210,37.654318,-1.712991,0,,"Hotel Jardines de Amaltea
CEPSA",,,San Antonio,
148506,Supermercado FROIZ,"Calle Fuente del Álamo, 16",Collado Villalba,Madrid,28403,210,40.64294030209484,-3.995151897668393,0,https://www.froiz.com,Parking,919070300,,,
148492,E.S. Galp - Alcala de Henares,Autovia del Nordeste Ctra. N-II Km 29,Alcalá de Henares,Madrid,28802,210,40.494206511625634,-3.387930722959709,0,,,,,,
148490,Agramunt - Cami de les Planes,Cami de les Planes 2A,Agramunt,Lleida,25310,210,41.783458501593714,1.0945383681130352,0,https://www.chargeandparking.es/,,,,,
148399,ES Valcarce,Carretera NA-2410,Olazti,Navarra,31800,210,42.88365991804034,-2.17993724529515,0,,,,,,
148398,IREL Cieza,"Carretera Madrid-Cartagena, 351",Cieza,Murcia,30530,210,38.259380354499086,-1.4337940205814448,0,,,,,,
148397,Supermercado FROIZ,"Avenida de la Universidad, 1",Fuenlabrada,Madrid,28942,210,40.28465990574526,-3.8160467351426632,0,https://www.froiz.com,Parking,917358907,,,
148329,EASYCHARGER - Puerta de la Montaña,Cepsa,Palencia,Castile and León,34492,210,42.71830653103993,-4.290948400684215,0,https://easycharger.es,,,,"N-611, Puebla de San Vicente",
147077,El Pont de Suert,Av. Victoriano Muñoz / Carrer de Suix,El Pont de Suert,Lleida,,210,42.40823208172097,0.7421162443481535,0,,,,,,
147075,Avinguda de les Comarques Catalanes,Avinguda de les Comarques Catalanes,Mora d'Ebre,Tarragona,43740,210,41.08969489734508,0.6433830715222939,0,,,,,,
147072,Ciudad Arcóbriga [CARGACOCHES],Monreal de Ariza,Monreal de Ariza,Zaragoza,50291,210,41.307810209253205,-2.122458544783285,0,,,,,,
146982,Estación de Servicios Fontefría,CR CTRA.SANTIAGO-NOIA km 23 Fontefría,Rois,A Coruña,15911,210,42.86444028616194,-8.62931124748718,0,http://losangelesgas.es/,Al pie de la carretera que une Santiago de Compostela con Bertamiráns (Ames) y a 500 m de la incorporación a la autovía A-56. ,981 89 16 57,,,
146976,Avenida Madrid - Valencia,Avenida Madrid - Valencia,Saelices,Cuenca,16431,210,39.92120908035457,-2.813171950872629,0,http://www.wenea.com,Primera salida de Saelices direccion Madrid-Valencia,915060600,,Las termas de Segóbtidas,
146900,EasyCharger,Rua de Miguel Ferro Caveiro ,Santiago de Compostela,A Coruña,15703,210,42.88418176694597,-8.513222511541699,0,https://easycharger.es,Located in front of Puerta del Camino Hotel,979 300 600,info@easycharger.es,,
146663,"Gasolinera Repsol, Cardeñajimeno","N-120, Km 106",Cardeñajimeno,Burgos,09192,210,42.34122623536288,-3.6122813758286156,0,,,,,,
146596,Atalaya de Cañavate (Iberdrola)," CU-V-8306, 16710 Atalaya del Cañavate",Atalaya del Cañavate,Cuenca,16710 ,210,39.538357654779986,-2.2552096789903544,0,,,,,,
146594,Aqua Hotel Aquamarina & Spa,"Avinguda del Mar, 16",Santa Susanna,,08398,210,41.634727544588884,2.721072568805994,0,https://www.aquahotel.com/hoteles/aquamarina-spa/,,+34 937 678 060,booking@aquahotel.com,,
146439,Avenida de las Letras,Avenida de las Letras,Cáceres,Cáceres,10004,210,39.47851252262629,-6.345265024434411,0,,,,,Campus Universitario,
146289,Plaça Capdevila,Plaça Capdevila 21,Tremp,Lleida,25620 - TREMP,210,42.167871714726914,0.8953686090542305,0,,"Public charger, but requires RFID from town hall (Ajuntament de Tremp) or using App EVCharge.
Owner: Ajuntament de Tremp
Operator: eTecnic",+34973650005,administracio@ajuntamentdetremp.cat,,
146288,Hospedería del Valle Boutique Aparments,"Calle Eras, 35. 37",Gargantilla del Lozoya y Pinilla de Buitrago,Madrid,28739,210,40.964878097883286,-3.720525518715931,0,http://www.hospederiadelvalle.com,HOSPEDERIA DEL VALLE  BOUTIQUE APARTMENTS,699058353,info.hospederia@gmail.com,,
146277,Avenida de Baños,Avenida de Baños,Guarromán,Jaén,23210,210,38.14274702369741,-3.718900994038904,0,https://www.endesa.com/es/sostenibilidad/a201610-movilidad-electrica-vehiculo-electrico.html,"Carretera de Andalucía Km283, Guarroman. Polígono industrial Guadiel",,,,
146264,Acosta vetonia,Almendralejo,Tierra de Barros,Tierra de Barros,06200,210,38.70917897549813,-6.401950584785482,0,,,,,San Marcos,
135518,EASO Politeknikoa,"Aitzol Parkea, 2",San Sebastián,Guipúzcoa,20011,210,43.3047776,-1.9638115,0,,,,,,
135517,P.E. San Fernando de Henares,"Avda. de Castilla, 2",San Fernando de Henares,Madrid,28830,210,40.4495225,-3.5121677,0,,,,,,
135516,Repsol Asua,"CTRA. Asua-Loiu, 57",Erandio,Bizkaia,48950,210,43.3075896,-2.9471396,0,,,,,,
135475,Froet gas estaciones de servicio,CIT SAN GINES,Murcia,Área Metropolitana de Murcia,30169,210,37.94590793079732,-1.194798328446609,0,,Estacion de servicio. ,+34 968 34 01 00,,Pedanía de San Ginés,
135474,Executive Spa hotel,Calle el granado 1,Totana,Murcia,30850,210,37.77457253085326,-1.4534633176988336,0,,Iberdrola. ,,,,
135245,Autovía de Castilla,Autovía de Castilla,Quintana del Puente,Palencia,34230,210,42.084731269206145,-4.209348698519989,0,,,,,Colonia Militar Infantil General Varela,
135232,Àrea de Bassella,Ctra. C14 Km. 134,Bassella,Lleida,25289,210,42.0059691,1.2942301,0,,"It is a service area, containing following services:
REPSOL petrol station with mini supermarket and a bar in it
Car Washing area
Second building containing a fast food restaurant (Pans and Company) and a motorcycle museum. 
Picknic Area
Huge parking area",0034 973 462 731,info@bassella.com,,
134883,Barrio La Maruca,Barrio La Maruca,Asturias,Asturias,33405,210,43.575178,-5.928522,0,,,,,,
134844,Hotel Mirador de La Franca,Playa de La Franca,Ribadedeva,Asturias,33590,210,43.39199565485757,-4.576134899810086,0,https://www.hotelmirador.com/,,+34985412145,lafranca@arceahoteles.com,,
134677,Planta potabilitzadora de Palafolls,B-682,Palafolls,Barcelona,08389,210,41.66996076937832,2.760459946579658,0,,,,,Can Bolet,
134616,Avinguda de Sitges,Avinguda de Sitges,Bajo Panadés,Bajo Panadés,43881,210,41.1943890511992,1.6245537196894,0,,,,,Masia Sant Antoni,
134565,"Repsol, Lopidana",CR N-1 P.K. 350.50,Vitoria-Gasteiz,Álava,01196,210,42.8784060343809,-2.71393995025494,0,https://www.ibil.es/,,,,,
134564,"Repsol, Ugaldebieta",AU A-8 P.K. 131.00,Abanto y Ciérvana - Abanto Zierbena,Biscay,48500,210,43.32844869905932,-3.0679072105095884,0,https://www.ibil.es/,,,,,
134304,Hotel Ibis Lleida,Maria de Montesori,Lleida,,25001,210,41.60706,0.633421,0,,,+34 973 212 040,,,
134143,ESTACION DE SERVICIO CETINA,N-II KM 200,Cetina,Zaragoza,50292,210,41.30610087242596,-1.9645274212016375,0,,,,,,
133748,E. S. Esser,"carrer de Carles I, 8",Pineda de Mar,Barcelona,08397,210,41.6240952172768,2.67446323319189,0,,,,,,
133747,Restaurant 4 Carreteres,Carretera de Barcelona 1,Tona,Barcelona,08551,210,41.8454954172254,2.23353279066259,0,,,,,Autovia Vic-Ripoll,
133746,E. S. Galp ,Avenida de Washington 68,Málaga,Málaga,29071,210,36.71357425,-4.4825585,0,,,,,,
133745,Mercadona Huesca Ing. Susin,C/Ingeniero Susin S/N,Huesca,Huescac,22006,210,42.1352614474256,-0.416702219202875,0,https://info.mercadona.es/es/supermercados?s=Huesca.%20Huesca&k=883185315972,,974457223,,,
133744,Repsol Almería ,Rambla de Belén,Almeria,Almeria,04008,210,36.8531634971028,-2.46866400567717,0,,,,,Los Ángeles,
133743,Easycharger Villalpando,Complejo El Raso. Area de descanso Vuelta Dese Leon.,Villalpando,Zamora,49630,210,41.8264774425396,-5.37918406541803,0,,,,,"Autovia A6, Km 231. Camino de los Gallegos.",
133742,E.S. Castillo Benavente,Av. Americas 7,Benavente,Zamora,49600,210,42.0030937206543,-5.66048247392723,0,,,,,,
133477,Avinguda del Mercat,Avinguda del Mercat,Vic,Barcelona,08500,210,41.9269691,2.2468953,0,,,,,El Sucre,
133472,GASOLINERA REPSOL,Carretera de Sant Pere de Ribes,SANT PERE DE RIBES,BARCELONA,08810,210,41.2551608892519,1.78127745570873,0,,,,,,
133172,Calle Pineta,Calle Pineta,Aínsa-Sobrarbe,Sobrarbe,22330,210,42.4137006340069,0.14792589226181,0,,,,,,
133049,Albufera 319,Avenida Albufera 319,Madrid,Madrid,28018,210,40.3839723948676,-3.63137845041001,0,https://placetoplug.com,Situados en el parking del concesionario Opel,,,,
132943,OVANS - Ayuntamiento de Cheste (Jefatura de Policía),"Calle Alcalde Matias Morell, 4, 46380 Cheste",Cheste,Valencia,46380,210,39.4939577897378,-0.679016394631276,0,https://www.ovans.es/es/,"Acceso Libre, situado en Vía Pública.",960918856,hablamos@ovans.es,,
132734,COBARSA (concesionario Audi),"Calle Andalucía, 46",Palencia,Palencia,34004,210,41.9993333645014,-4.51142123930117,0,,,,,,
132698,Glorieta de los Estudiantes,Glorieta de los Estudiantes,La Palma del Condado,Huelva,21700,210,37.52195381098943,-6.773618426432108,0,,,,,,
132425,Ca l'Alier,Carrer de Fluvià,Barcelona,Barcelona,08019,210,41.4097175684616,2.20343104495919,0,https://www.endolla.barcelona/,,937064866,,,
132346,Edrr sant fruitos 2,Carretera de Berga,Bages,Bages,08272,210,41.7486527160096,1.86177642262533,0,,,,,Can Sala,
132343,Edrr sant fruitos,Carretera de Berga,Bages,Bages,08272,210,41.7518246602927,1.86317732199245,0,,,93 878 97 00,,Can Sala,
132185,Plaça d'Orient,"Plaça d'Orient, 8",El Vendrell,Baix Penedès,43700,210,41.2197287870559,1.5364336413918,0,,,,,,
132113, SIMA Igualada Nord,"Carrer de Lecco, 30, 08700 Igualada, Barcelona, España",Igualada,Barcelona,08700,210,41.589586,1.6189378,0,,,,,Parking,
132048,Splau parking,Splau parking,Bajo Llobregat,Bajo Llobregat,08820,210,41.3471186119571,2.07803520268567,0,,En parking subterráneo -1 y -2,,,,
131869,Lloret oficina de turisme,GI-680,Selva,Selva,17310,210,41.7025289539146,2.83646693382684,0,,Funciona con la app de electromaps o la tarjeta live Barcelona ,,,Ca la Mara-no-ho-vol,
131609,ES Villaviciosa,"Ctra Nacional 632, km 43",Villaviciosa,Asturias,33300,210,43.4889190262507,-5.44468432982319,0,,,,,,
131564,Gijón - Oriental,"C/Oriental, 11",Gijón,Asturias,33212,210,43.5404920484362,-5.69700432047705,0,,,+34984390064,,,
131428,Rápido Oliva,"Carrer del Pare Antonio Salelles, 10",Oliva,Valencia,46780,210,38.9216408119596,-0.116897129926201,0,,,,,,
131405,Sant Jordi Boutique Hotel,Carrer del Turisme,Calella,,8370,210,41.611299,2.649424,0,,,+34 93 766 19 19,,,
131393,Hotel Ibis Styles Arnedo,Paseo Constitucion,Arnedo,,26580,210,42.224574,-2.108609,0,,,+34 941 38 01 00,,,
131326,Playacanela Hotel,Av. de la Mojarra,Ayamonte,,21409,210,37.183457,-7.345572,0,,Only by reservation,+ 34 959479545,,,
131272,EDP Posada de Llanes,Estación de Servicio GALP,Posada de Llanes,Asturias,,210,43.4326224954971,-4.85817418504917,0,,,,,,
131267,"Parking Avenida del Mediterráneo, Ayuntamiento de Cartagena",Avenida del Mediterráneo,Cartagena,Murcia,30370,210,37.6542287844066,-0.719440057480142,0,https://www.cartagena.es/plantillas/2.asp?pt_idpag=2582,,,,La Manga del Mar Menor,
131266,"Oficina de Turismo Puertas de San José, Ayuntamiento de Cartagena",Plaza de las Puertas de San José,Cartagena,Murcia,30203,210,37.6037219862371,-0.978073896628075,0,https://www.cartagena.es/plantillas/2.asp?pt_idpag=2582,,,,,
131265,"Casa de la Juventud, Ayuntamiento de Cartagena",Paseo de Alfonso XIII,Cartagena,Murcia,30203,210,37.6070435284726,-0.980649723701163,0,https://www.cartagena.es/plantillas/2.asp?pt_idpag=2582,,,,,
131264,Calle de Pompeu Fabra,Calle de Pompeu Fabra,Hostalric,Selva,17450,210,41.7408589,2.6233577,0,https://www.chargeandparking.es/,,,,,
131200,Petrem ,"Plaça Industrial Torroella, 12A",Girona ,Girona,17097,210,41.9894166953218,2.79551898917555,0,,Estación de seevicio,,,,
131175,EDRR La Seu d'Urgell,Cami Real de Cerdanya 7,La Seu d'Urgell,Lleida,25700,210,42.3589219765641,1.46324282956755,0,,Close to the Tesla Supercharger,,,,
131174,E.S. Galp Avenida das Mariñas,Avenida das Mariñas,Oleiros,A Coruña,15172,210,43.328843556767,-8.36621458786453,0,,Opens 7 AM till 11 PM,,,,
131173,Easycharger Outeiro de Rei,Autovia a 6 kM 507 / Rua F,Outeiro de Rei,Lugo,27150,210,43.107081,-7.60496,0,https://easycharger.es/,,,,,
131172,Hotel restaurante Torremar,Autovia A-2 Km 154 / Carretera de Lodares,Medinaceli,Soria,42240,210,41.189405,-2.401425,0,http://www.wenea.com/,App required,,,,
131165,Hotel Claridge,Plaza del Conde de Casal 6,Madrid,Madrid,28007,210,40.40624839329729,-3.6692776247764414,0,http://www.hotelclaridge.com/,,+34 91 551 94 00,reservas@hotelclaridge.com,,
131126,Mercadona Paseo Ramón y Cajal (Huesca),"Paseo Ramón y Cajal, 90",Huesca,Huesca, 22006,210,42.1396626819663,-0.39477249985066,0,,,,,,
131123,Aparcamiento Junta de Castilla y León,Avenida Reyes Leoneses 12,León,León,24008,210,42.6034749824998,-5.58011444454701,0,https://www.leonecocity.es/,Acceso libre,606 67 61 65,info@leonecocity.es,,
131025,Aracena - Honestcharging,"Aparcamiento de la Feria, A-470",Aracena,Huelva,21200,210,37.8888902509943,-6.57020597295787,0,http://blaudrive.com/,,626435701,,,
130992,Travessia del Cavall Bernat,Travessia del Cavall Bernat,Castell-Platja d'Aro,Baix Empordà,17250,210,41.8198172229887,3.06991758450079,0,https://www.e-mobilitat.cat/,,0900250260,e-mobilitat@estabanell.cat,,
130957,Punt recàrrega elèctrica cotxes i motos,"Passatge de les Moreres, 25280 Solsona, Lleida",Solsona,Lleida,25280,210,41.9943051350207,1.52022940777442,0,,,,,,
130594,Centro Comercial Puerta de Algete,Calle Mayor 62,Algete,Madrid,28110,210,40.5969467920784,-3.50718419279144,0,http://www.viaris.orbis.es/es/,Junto al Aldi y al Ahorramás,,,,
130198,Iberdrola Villajoyosa,C/ Pianista Gonzalo Soriano s/n,Villajoyosa,Alicante,03570,210,38.5120694874307,-0.232357673312208,0,https://play.google.com/store/apps/details?id=es.iberdrola.recargaverde&hl=es_419,"In the street, in front of Chocolates Valor",+34900929293,smartmobility@iberdrola.es,Opposite of Chocolates Valor,900929293
130196,E.S. Anoeta - AVIA,"Begiristain Dok. PS, 75",Donostia-San Sebastian,Gipuzkoa,20014,210,43.2972084988535,-1.96615249486365,0,,,+34900224522,,,
130195,Plaza Ugarteko,"Ugarteko, 1",Bilbao,Bizkaia,48014,210,43.273563687744,-2.95474777296931,0,,,+34900224522,,,
130194,Lehendakari Leizaola 5,"Euskadi, 1",Bilbao,Bizkaia,48071,210,43.2671539227433,-2.93952000483159,0,,,+34900224522,,,
130193,Elcano 9,"Elcano, 9",Bilbao,Bizkaia,48008,210,43.2623841725375,-2.93456053942327,0,,,+34900224522,,,
130192,Paseo Uribitarte 3,"Paseo Uribitarte, 3",Bilbao,Bizkaia,48001,210,43.2648321943264,-2.92716652018828,0,,,+34900224522,,,
130191,Gernika Lorategia 25,"Gernika Lorategia, 25",Bilbao,Bizkaia,48003,210,43.249040715589,-2.92653308704041,0,,,+34900224522,,,
130190,AVIA E.S. Arrasate,"Barrio de San Andrés, 7",Mondragón,Gipuzkoa,20500,210,43.0487389303412,-2.49738581820361,0,,,+34900224522,,,
130189,E.S. Gasogas Olaberria - AVIA,"Barrio Yurre, s/n",Olaberria,Gipuzkoa,20212,210,43.0393044112183,-2.21691448471552,0,,Behind the gas station.,+34900224522,,,
130062,E.S. Adenor - Manresa - AVIA,Carrer d'Agustí Coll 18,Manresa,Barcelona,08243,210,41.7241152293938,1.84898244733427,0,https://www.iberdrola.es/movilidad-electrica/recarga-fuera-de-casa,,900224522,SmartMobility@iberdrola.es,,
130058,Mercadona,Avenida San Pablo s/n,Villanueva del Pardillo,Madrid,28229,210,40.490078987082,-3.95560212885653,0,,,,,,
130047,Centrolid,Euro 2,Valladolid,Valladolid,47009,210,41.6742137120257,-4.72080119922805,0,,,900224522,,,
130046,E.S. Avia - Unquera,"Carretera Nacional A-8, Km. 279",Pesués,Cantabria,39560,210,43.3751057243969,-4.50253631870339,0,https://www.iberdrola.es/movilidad-electrica/recarga-fuera-de-casa,,900224522,SmartMobility@iberdrola.es,,
129973,EDP Charge Point,Biblioteca Municipal de Sobrescobio,Rioseco,Asturias,33993,210,43.221746192254,-5.45755031419981,0,,,,,,
129839,E.S. Avia - Encinas de Abajo,"Ctra. N501, Km 77.1",Encinas de Abajo,Salamanca,37893,210,40.9320064876581,-5.46667354118597,0,https://www.iberdrola.es/movilidad-electrica/recarga-fuera-de-casa,,900224522,SmartMobility@iberdrola.es,,
129835,E.S. Adenor - Tartessos,Plaza Tartessos,Huelva,Huelva,21007,210,37.3061354314404,-6.87291609880845,0,https://www.iberdrola.es/movilidad-electrica/recarga-fuera-de-casa,,900224522,SmartMobility@iberdrola.es,,
129832,E.S. Avia Dacar - Aranda de Duero,"Bemposta 97, Polígono Industrial Allenduero",Aranda de Duero,Burgos,09400,210,41.6705595114023,-3.70714906840374,0,https://www.iberdrola.es/movilidad-electrica/recarga-fuera-de-casa,,900224522,SmartMobility@iberdrola.es,,947507177
129806,Ayuntamiento de Alberic,Avda. de la Muntanyeta,Alberique,Valencia,46292,210,39.1200225887505,-0.524032332858042,0,http://www.alberic.es/,"Salida 383 de la A7. Entrando a la localidad, girar en la primera intersección a la izquierda.",962440066,,,
129725,E.S. Adenor - Cuenca,"Av. de los Reyes Católicos, 76",Cuenca,Cuenca,16003,210,40.0591462,-2.1388082,0,https://www.iberdrola.es/movilidad-electrica/recarga-fuera-de-casa,,900929293,SmartMobility@iberdrola.es,,
